Municipio,Data,Precipitacao,DiaSemChuva,Mes,DiaSemana,Estacao_Seca,Municipio_Freq,Latitude,Longitude,media_focos_mes_hist,prob_fogo,percentil,risco
NIQUELÂNDIA,2026-06-19,0.0,2,6,4,1,0.0702666861597576,-14.555710756178348,-48.323001755813664,16.54513888888889,0.9540695048503136,1.0,ALTO
CAVALCANTE,2026-06-19,0.0,2,6,4,1,0.0610547238995633,-13.605372533203356,-47.74998846789225,13.759398496240602,0.9275591342150703,0.9959016393442623,ALTO
MINEIROS,2026-06-19,0.0,2,6,4,1,0.0275280840801993,-17.758011413392754,-52.819223041509886,9.509174311926603,0.9053126691488338,0.9918032786885246,ALTO
CAIAPÔNIA,2026-06-19,0.0,3,6,4,1,0.0142749973049324,-17.02333953529842,-51.80903000805655,7.114832535885167,0.9014616366391217,0.9877049180327869,ALTO
JATAÍ,2026-06-19,0.0,3,6,4,1,0.0181485107721479,-17.885693026802887,-51.7369228480587,4.259668508287293,0.89482900562819,0.9836065573770492,ALTO
RIO VERDE,2026-06-19,0.0,3,6,4,1,0.020077883759154,-17.80973337888139,-51.01793797116709,5.575418994413408,0.8918107531347393,0.9795081967213115,ALTO
CRISTALINA,2026-06-19,0.0,3,6,4,1,0.0132176447915789,-16.729108968671913,-47.51949739378938,4.318181818181818,0.8917194817835068,0.9754098360655737,ALTO
BARRO ALTO,2026-06-19,0.0,2,6,4,1,0.0070197278941702,-14.9246949793272,-48.89831318663708,2.274193548387097,0.8895281922469104,0.9713114754098361,ALTO
FORMOSA,2026-06-19,0.0,2,6,4,1,0.0326974450760009,-15.366385635807053,-47.255312528185605,4.150837988826815,0.8769316792963158,0.9672131147540983,ALTO
IPAMERI,2026-06-19,0.0,4,6,4,1,0.0082203250915953,-17.453901960073118,-47.994679662267664,5.139896373056994,0.8768245473434784,0.9631147540983607,ALTO
LUZIÂNIA,2026-06-19,0.0,3,6,4,1,0.0070248965167913,-16.41158591502055,-47.9402484582945,3.549504950495049,0.8567875991876246,0.9590163934426229,ALTO
NOVA CRIXÁS,2026-06-19,0.0,2,6,4,1,0.0140461011602819,-14.109081491545986,-50.60644025233707,11.0,0.8567628611652472,0.9549180327868853,ALTO
CATALÃO,2026-06-19,0.0,4,6,4,1,0.0067051802889407,-17.859620758114687,-47.65795514226879,6.779220779220779,0.8438874328907596,0.9508196721311475,ALTO
PORANGATU,2026-06-19,0.0,1,6,4,1,0.0130825222287691,-13.295151272205969,-49.25062116604489,8.9,0.8405679717929869,0.9467213114754098,ALTO
PLANALTINA,2026-06-19,0.0,2,6,4,1,0.0220286696113048,-15.297339114149969,-47.82804373552916,6.205128205128205,0.8389908393663096,0.9426229508196722,ALTO
SÃO JOÃO D'ALIANÇA,2026-06-19,0.0,2,6,4,1,0.0174500083436336,-14.47092130372994,-47.44566869827519,4.917582417582418,0.8304506485955084,0.9385245901639344,ALTO
FLORES DE GOIÁS,2026-06-19,0.0,2,6,4,1,0.0204832514475835,-14.69582900883936,-46.88334718801356,4.961538461538462,0.8155476103076853,0.9344262295081968,ALTO
GOIÂNIA,2026-06-19,0.0,3,6,4,1,0.0056264149104425,-16.627186847284758,-49.26892340187793,3.121387283236994,0.8038211879971802,0.930327868852459,ALTO
MONTE ALEGRE DE GOIÁS,2026-06-19,0.0,3,6,4,1,0.0256814090551314,-13.350813143278856,-46.98514054795142,5.746268656716418,0.8011967370668337,0.9262295081967213,ALTO
SERRANÓPOLIS,2026-06-19,0.0,3,6,4,1,0.0084580817321678,-18.245444254046,-52.13858145093347,3.9432624113475176,0.7989002987361693,0.9221311475409836,ALTO
ITUMBIARA,2026-06-19,0.0,3,6,4,1,0.0076968174575397,-18.36303539838409,-49.51316782799183,5.170940170940171,0.7963741929022637,0.9180327868852459,ALTO
PARAÚNA,2026-06-19,0.0,3,6,4,1,0.0093854803053326,-17.025229406670206,-50.64132283176662,7.314814814814815,0.7948292124367929,0.9139344262295082,ALTO
PADRE BERNARDO,2026-06-19,0.0,2,6,4,1,0.0171465363583066,-15.387542873502616,-48.24234321428453,3.821138211382114,0.7817025214893047,0.9098360655737705,ALTO
SÃO MIGUEL DO ARAGUAIA,2026-06-19,0.0,1,6,4,1,0.0108009445288652,-13.03457954651454,-50.31087167757311,5.801418439716312,0.7718231198268765,0.9057377049180327,ALTO
SÃO DOMINGOS,2026-06-19,0.0,3,6,4,1,0.0184815177438814,-13.484742034647564,-46.3952483067699,5.164179104477612,0.7660362255636624,0.9016393442622951,ALTO
MINAÇU,2026-06-19,0.0,2,6,4,1,0.0177172999706126,-13.517945024690189,-48.337109129169214,5.321428571428571,0.7593225903256837,0.8975409836065574,MÉDIO
CRIXÁS,2026-06-19,0.0,2,6,4,1,0.0142565379384284,-14.80659158075239,-50.06889904182484,3.504,0.7583192453894398,0.8934426229508197,MÉDIO
JUSSARA,2026-06-19,0.0,4,6,4,1,0.0097384233928906,-15.53774041723269,-51.30291227238109,7.694117647058824,0.7466231859562372,0.889344262295082,MÉDIO
URUAÇU,2026-06-19,0.0,3,6,4,1,0.0084898318425548,-14.424659723475168,-49.081429732121045,2.8306451612903225,0.7451480194591491,0.8852459016393442,MÉDIO
ALTO PARAÍSO DE GOIÁS,2026-06-19,0.0,2,6,4,1,0.0136045531135044,-14.194794675020932,-47.58800995260268,5.992063492063492,0.7409623926054549,0.8811475409836066,MÉDIO
DOVERLÂNDIA,2026-06-19,0.0,3,6,4,1,0.0061203875580916,-16.786897298262215,-52.47629182084975,6.219512195121951,0.7407346333309065,0.8770491803278688,MÉDIO
CAMPO ALEGRE DE GOIÁS,2026-06-19,0.0,5,6,4,1,0.0035722566058688,-17.478774899824252,-47.74286914863833,3.197674418604651,0.7405876432476874,0.8729508196721312,MÉDIO
ÁGUA FRIA DE GOIÁS,2026-06-19,0.0,2,6,4,1,0.0101031804750111,-14.959240097702764,-47.8720093319421,3.768421052631579,0.7234969758153139,0.8688524590163934,MÉDIO
NOVA ROMA,2026-06-19,0.0,2,6,4,1,0.0121329724157994,-13.714942640576536,-47.01834764226104,5.73015873015873,0.7088450871610384,0.8647540983606558,MÉDIO
VILA BOA,2026-06-19,0.0,5,6,4,1,0.0051088142736682,-14.984552679127855,-47.06563145675107,4.597402597402597,0.7007871246990162,0.860655737704918,MÉDIO
CALDAS NOVAS,2026-06-19,0.0,3,6,4,1,0.0032953661083077,-17.728174181219167,-48.609976896734885,3.2033898305084745,0.7006705886365518,0.8565573770491803,MÉDIO
VILA PROPÍCIO,2026-06-19,0.0,2,6,4,1,0.0090901304412674,-15.174992710889834,-48.74270162202432,3.1449275362318843,0.6943794686623328,0.8524590163934426,MÉDIO
CAMPINAÇU,2026-06-19,0.0,1,6,4,1,0.0107566420492554,-13.868181231222769,-48.55699372818981,7.882352941176471,0.6869738083676356,0.8483606557377049,MÉDIO
BOM JARDIM DE GOIÁS,2026-06-19,0.0,3,6,4,1,0.006982809161162,-16.169600227866493,-52.08811808319062,3.295238095238095,0.6804611053488858,0.8442622950819673,MÉDIO
SILVÂNIA,2026-06-19,0.0,3,6,4,1,0.0024809388581478,-16.63901076782678,-48.5989267608625,2.824074074074074,0.678562969140657,0.8401639344262295,MÉDIO
ARAGUAPAZ,2026-06-19,0.0,2,6,4,1,0.0072685601546451,-15.139882625109504,-50.2765366521584,3.544117647058824,0.6783841593451606,0.8360655737704918,MÉDIO
MIMOSO DE GOIÁS,2026-06-19,0.0,2,6,4,1,0.0153441638128486,-15.0302729730905,-48.33825202036574,5.0,0.6757249359087809,0.8319672131147541,MÉDIO
ANÁPOLIS,2026-06-19,0.0,3,6,4,1,0.0025665903187268,-16.327248789404404,-48.95399874795129,2.279279279279279,0.6697012462844374,0.8278688524590164,MÉDIO
GOIÁS,2026-06-19,0.0,3,6,4,1,0.006679337175835,-15.910637681321438,-50.22587344128038,3.4526315789473685,0.6613402528168022,0.8237704918032787,MÉDIO
PIRACANJUBA,2026-06-19,0.0,3,6,4,1,0.0031550749228767,-17.359788624438703,-49.008963459189445,2.4878048780487805,0.6534558256742207,0.819672131147541,MÉDIO
ARUANÃ,2026-06-19,0.0,2,6,4,1,0.0055090133394766,-14.80056233565119,-50.9660645783424,5.5,0.652358181037756,0.8155737704918032,MÉDIO
PIRENÓPOLIS,2026-06-19,0.0,2,6,4,1,0.0060856839490639,-15.78834605245366,-48.98248540918748,2.509433962264151,0.650304763575066,0.8114754098360656,MÉDIO
MORRINHOS,2026-06-19,0.0,3,6,4,1,0.0046879407173752,-17.747080471125827,-49.18201398317284,2.7681159420289854,0.6461414945798489,0.8073770491803278,MÉDIO
ANICUNS,2026-06-19,0.0,4,6,4,1,0.0028693239293936,-16.386618352812665,-49.96569453715062,2.6095238095238096,0.6431434069509813,0.8032786885245902,MÉDIO
ALVORADA DO NORTE,2026-06-19,0.0,2,6,4,1,0.0069111868191262,-14.578913930149612,-46.62741788371978,4.3125,0.638902424931145,0.7991803278688525,MÉDIO
POSSE,2026-06-19,0.0,3,6,4,1,0.0078828878719008,-14.196997106543726,-46.3411011854588,3.027027027027027,0.638386655270152,0.7950819672131147,MÉDIO
MONTIVIDIU DO NORTE,2026-06-19,0.0,2,6,4,1,0.0055422401991839,-13.157797966650936,-48.70583895092373,7.462962962962963,0.6321789157618463,0.7909836065573771,MÉDIO
CABECEIRAS,2026-06-19,0.0,2,6,4,1,0.0021161817760273,-15.753711869204832,-46.99550025639795,4.791666666666667,0.6289806766979167,0.7868852459016393,MÉDIO
SENADOR CANEDO,2026-06-19,0.0,5,6,4,1,0.0015070226813928,-16.72174558705297,-49.12425814633367,2.8767123287671232,0.6197481120791671,0.7827868852459017,MÉDIO
PIRANHAS,2026-06-19,0.0,3,6,4,1,0.0030155221121059,-16.447787530113146,-51.854078169184085,3.371794871794872,0.6194745322530537,0.7786885245901639,MÉDIO
SÍTIO D'ABADIA,2026-06-19,0.0,2,6,4,1,0.0063869408104104,-14.729138480039394,-46.29929381822457,5.327586206896552,0.6186444285841226,0.7745901639344263,MÉDIO
HIDROLÂNDIA,2026-06-19,0.0,5,6,4,1,0.001757331691188,-17.00595303936355,-49.2631795818899,2.1594202898550723,0.6164246646547785,0.7704918032786885,MÉDIO
CEZARINA,2026-06-19,0.0,5,6,4,1,0.0010817188771388,-17.034689299189036,-49.7756844762151,1.1111111111111112,0.6146894562077173,0.7663934426229508,MÉDIO
ORIZONA,2026-06-19,0.0,4,6,4,1,0.0020201930702061,-17.02708940860277,-48.16569268300261,2.0625,0.6134963251606098,0.7622950819672131,MÉDIO
COLINAS DO SUL,2026-06-19,0.0,2,6,4,1,0.0162671321380524,-13.94148455899416,-48.086108285372966,5.053571428571429,0.6131295103540866,0.7581967213114754,MÉDIO
IACIARA,2026-06-19,0.0,2,6,4,1,0.0029911557483205,-14.108153980696324,-46.79592329445353,7.594202898550725,0.6072722850052312,0.7540983606557377,MÉDIO
GOIANÉSIA,2026-06-19,0.0,2,6,4,1,0.0033721570729647,-15.235935983775684,-49.19339896780853,2.430379746835443,0.6060893013112293,0.75,MÉDIO
MONTES CLAROS DE GOIÁS,2026-06-19,0.0,2,6,4,1,0.0036261579560608,-15.873326931416043,-51.59664771775818,4.019230769230769,0.6058821272715819,0.7459016393442623,MÉDIO
JARAGUÁ,2026-06-19,0.0,2,6,4,1,0.0027460153611464,-15.684175632573451,-49.36723779617128,2.119047619047619,0.6040081259236381,0.7418032786885246,MÉDIO
MARA ROSA,2026-06-19,0.0,2,6,4,1,0.0037022105460575,-13.999770100704,-49.390664925569126,2.625,0.603739642124951,0.7377049180327869,MÉDIO
ITABERAÍ,2026-06-19,0.0,2,6,4,1,0.0036438789479047,-16.076051965486666,-49.86875528845477,3.0,0.6033562254930729,0.7336065573770492,MÉDIO
SANTA ISABEL,2026-06-19,0.0,2,6,4,1,0.0024432817504795,-15.200546008094864,-49.40043024932847,6.6415094339622645,0.6019175374130215,0.7295081967213115,MÉDIO
ABADIÂNIA,2026-06-19,0.0,3,6,4,1,0.0021287341452501,-16.19915712906121,-48.70814271576387,2.414634146341464,0.6008553351327318,0.7254098360655737,MÉDIO
COCALZINHO DE GOIÁS,2026-06-19,0.0,2,6,4,1,0.0042582066651603,-15.644454575968023,-48.59695917813067,2.492063492063492,0.6006352149582692,0.7213114754098361,MÉDIO
SÃO LUIZ DO NORTE,2026-06-19,0.0,3,6,4,1,0.0024484503731007,-14.905980936295272,-49.283790673643686,3.3375,0.598332407800366,0.7172131147540983,MÉDIO
GOIATUBA,2026-06-19,0.0,3,6,4,1,0.0047403653182468,-17.991078799174332,-49.72506729400575,2.75,0.585563969226676,0.7131147540983607,MÉDIO
ITAPACI,2026-06-19,0.0,2,6,4,1,0.0027290327439626,-14.955491253186096,-49.62493326485581,2.6666666666666665,0.5831658668856406,0.7090163934426229,MÉDIO
SANTO ANTÔNIO DO DESCOBERTO,2026-06-19,0.0,2,6,4,1,0.002381996653686,-16.02598615253068,-48.28800335138823,2.3076923076923075,0.574404237756139,0.7049180327868853,MÉDIO
NOVA GLÓRIA,2026-06-19,0.0,3,6,4,1,0.0023332639261152,-15.080904022970325,-49.5127373729181,2.68,0.5727646752488302,0.7008196721311475,MÉDIO
ITARUMÃ,2026-06-19,0.0,3,6,4,1,0.0046421614884451,-18.86462245523424,-51.33580667861621,4.627118644067797,0.5723350202020188,0.6967213114754098,BAIXO
APORÉ,2026-06-19,0.0,3,6,4,1,0.0023280953034941,-18.7073526543005,-52.08304620766298,4.466666666666667,0.5693468605116744,0.6926229508196722,BAIXO
SANTA RITA DO NOVO DESTINO,2026-06-19,0.0,2,6,4,1,0.0025961253051333,-14.819117187607606,-49.03969360530454,4.5588235294117645,0.5673490647973256,0.6885245901639344,BAIXO
PIRES DO RIO,2026-06-19,0.0,4,6,4,1,0.0018075411680791,-17.230327492515848,-48.40629032850881,3.636363636363636,0.5630478665792636,0.6844262295081968,BAIXO
BALIZA,2026-06-19,0.0,2,6,4,1,0.0094534107740676,-16.335498056525363,-52.47044379945877,2.369565217391304,0.562886921758643,0.680327868852459,BAIXO
AMARALINA,2026-06-19,0.0,3,6,4,1,0.0035235238782981,-13.848529827205882,-49.56903226128027,2.5098039215686274,0.5564023073435131,0.6762295081967213,BAIXO
TRINDADE,2026-06-19,0.0,5,6,4,1,0.0016598662360465,-16.650075769653657,-49.51836291274552,1.6708860759493671,0.5542066956301824,0.6721311475409836,BAIXO
PALMEIRAS DE GOIÁS,2026-06-19,0.0,3,6,4,1,0.0026522417793057,-16.814514481269185,-49.9450199537401,2.2916666666666665,0.5524675075027612,0.6680327868852459,BAIXO
SANTA TEREZINHA DE GOIÁS,2026-06-19,0.0,2,6,4,1,0.0023960257722291,-14.32429478078316,-49.65930833489798,4.050847457627119,0.5524252433447046,0.6639344262295082,BAIXO
SANTA HELENA DE GOIÁS,2026-06-19,0.1,0,6,4,1,0.0065552902329276,-17.809635495091406,-50.550434417318826,5.549295774647887,0.5511136515350294,0.6598360655737705,BAIXO
APARECIDA DE GOIÂNIA,2026-06-19,0.0,3,6,4,1,0.0013357197602349,-16.80602601231046,-49.24588428522596,1.7731958762886595,0.5508972053687385,0.6557377049180327,BAIXO
MUNDO NOVO,2026-06-19,0.0,3,6,4,1,0.0027504456091074,-13.777534650060309,-50.25180240334917,2.9692307692307693,0.5506513377904797,0.6516393442622951,BAIXO
EDÉIA,2026-06-19,0.0,4,6,4,1,0.0040093744046854,-17.509361464280108,-50.00172531667008,2.9791666666666665,0.5469908969922553,0.6475409836065574,BAIXO
BONÓPOLIS,2026-06-19,0.0,1,6,4,1,0.0027253408706618,-13.56457655433514,-49.78488929257367,3.725,0.5435728654271287,0.6434426229508197,BAIXO
ACREÚNA,2026-06-19,0.0,3,6,4,1,0.0050453140528942,-17.48826970830257,-50.32369400069289,3.42,0.5398539068790992,0.639344262295082,BAIXO
CAMPINORTE,2026-06-19,0.0,3,6,4,1,0.0043180150126335,-14.019192669554034,-48.931304030265736,2.239130434782609,0.5371496758277294,0.6352459016393442,BAIXO
ITAPURANGA,2026-06-19,0.0,2,6,4,1,0.0018466750250678,-15.577224810549591,-49.933817512866845,2.2222222222222223,0.5362968706391855,0.6311475409836066,BAIXO
BOM JESUS DE GOIÁS,2026-06-19,0.0,3,6,4,1,0.0043556721203019,-18.192311694542585,-49.92073113922121,2.872727272727273,0.5278843258728174,0.6270491803278688,BAIXO
INDIARA,2026-06-19,0.0,5,6,4,1,0.0023591070392209,-17.22357364537349,-49.96111627583188,2.575,0.5269693380924813,0.6229508196721312,BAIXO
MUTUNÓPOLIS,2026-06-19,0.0,1,6,4,1,0.0021346411425314,-13.711606278817616,-49.31418113591433,5.033898305084746,0.5223118617266193,0.6188524590163934,BAIXO
QUIRINÓPOLIS,2026-06-19,0.0,4,6,4,1,0.0039104322002235,-18.344498864270253,-50.57761418506451,3.3095238095238093,0.5014652052116315,0.6147540983606558,BAIXO
CORUMBAÍBA,2026-06-19,0.0,3,6,4,1,0.0016332847482806,-18.048104715395148,-48.4749049622824,2.3191489361702127,0.5012161365477407,0.610655737704918,BAIXO
BELA VISTA DE GOIÁS,2026-06-19,0.0,5,6,4,1,0.002201094861946,-16.95106540676648,-48.933601465935,1.6,0.49931000490367045,0.6065573770491803,BAIXO
INHUMAS,2026-06-19,0.0,5,6,4,1,0.0011282364807291,-16.318242778189063,-49.50186836687853,1.9130434782608696,0.4943253208431553,0.6024590163934426,BAIXO
CORUMBÁ DE GOIÁS,2026-06-19,0.0,2,6,4,1,0.0013837141131455,-15.898613517797502,-48.71659334472278,2.606060606060606,0.4931783231893577,0.5983606557377049,BAIXO
ÁGUAS LINDAS DE GOIÁS,2026-06-19,0.0,3,6,4,1,0.0010477536427713,-15.740323677414423,-48.27077651213715,1.6349206349206349,0.49077582632947736,0.5942622950819673,BAIXO
PORTEIRÃO,2026-06-19,0.0,4,6,4,1,0.002961620761914,-17.91222565304729,-50.164965023771295,3.433333333333333,0.4898165355095673,0.5901639344262295,BAIXO
FAINA,2026-06-19,0.0,2,6,4,1,0.0040012522834236,-15.450502453569465,-50.35323063719383,2.484848484848485,0.4850706887843968,0.5860655737704918,BAIXO
NOVO PLANALTO,2026-06-19,0.0,1,6,4,1,0.0015786450234286,-13.224864863175409,-49.711211164352655,4.092307692307692,0.48378507508762997,0.5819672131147541,BAIXO
ALEXÂNIA,2026-06-19,0.0,3,6,4,1,0.0011895215775226,-16.07491682926853,-48.49287370127031,1.9056603773584904,0.4764420805785178,0.5778688524590164,BAIXO
VICENTINÓPOLIS,2026-06-19,0.0,4,6,4,1,0.0018865472567166,-17.717102371829977,-49.92046965643163,4.85,0.4744045852129027,0.5737704918032787,BAIXO
TURVELÂNDIA,2026-06-19,0.0,4,6,4,1,0.0033884013154882,-17.8061094010701,-50.31150433875028,2.41025641025641,0.4739765582771669,0.569672131147541,BAIXO
MOZARLÂNDIA,2026-06-19,0.0,2,6,4,1,0.0020120709489443,-14.81638418252236,-50.609316979892746,2.8541666666666665,0.4739169879325086,0.5655737704918032,BAIXO
TERESINA DE GOIÁS,2026-06-19,0.0,2,6,4,1,0.0045387890360223,-13.661127323864664,-47.23879651180497,3.9615384615384617,0.4669500176202165,0.5614754098360656,BAIXO
PALESTINA DE GOIÁS,2026-06-19,0.0,3,6,4,1,0.0016318079989603,-16.713753711842983,-51.42754199497641,2.933333333333333,0.46690564172055427,0.5573770491803278,BAIXO
SANTA CRUZ DE GOIÁS,2026-06-19,0.0,4,6,4,1,0.0013851908624659,-17.372324572144244,-48.58985156059331,2.351351351351352,0.4612089585535766,0.5532786885245902,BAIXO
CAÇU,2026-06-19,0.0,3,6,4,1,0.0017366572007035,-18.69115169498673,-51.169522816602274,4.6,0.4600831728792642,0.5491803278688525,BAIXO
ITAJÁ,2026-06-19,0.0,3,6,4,1,0.0019995185797215,-19.086946202574843,-51.34562507108249,2.5384615384615383,0.4599989478165691,0.5450819672131147,BAIXO
GUARANI DE GOIÁS,2026-06-19,0.0,3,6,4,1,0.0039702405476967,-13.896234842419478,-46.35992556272503,3.25,0.45666761962120583,0.5409836065573771,BAIXO
SANTA TEREZA DE GOIÁS,2026-06-19,0.0,1,6,4,1,0.0022261996003916,-13.615351655700474,-48.99769110324295,3.5405405405405403,0.4559692160196935,0.5368852459016393,BAIXO
SANTA FÉ DE GOIÁS,2026-06-19,0.0,2,6,4,1,0.0017765294323523,-15.695835336846852,-51.16880663261477,4.266666666666667,0.45232857673488064,0.5327868852459017,BAIXO
IVOLÂNDIA,2026-06-19,0.0,3,6,4,1,0.0014804411936269,-16.679987246814406,-50.98325370232422,3.4878048780487805,0.4518079792628488,0.5286885245901639,BAIXO
GUAPÓ,2026-06-19,0.0,5,6,4,1,0.0013896211104268,-16.923914459668058,-49.58948320140861,2.5,0.4414618038199089,0.5245901639344263,BAIXO
URUTAÍ,2026-06-19,0.0,4,6,4,1,0.001073596755877,-17.44233047699522,-48.19865040570893,2.357142857142857,0.43748967570796904,0.5204918032786885,BAIXO
SANTA RITA DO ARAGUAIA,2026-06-19,0.0,2,6,4,1,0.0016871860984725,-17.30441364463477,-53.10068255768836,2.236842105263158,0.43454805626024945,0.5163934426229508,BAIXO
ARENÓPOLIS,2026-06-19,0.0,2,6,4,1,0.0016960465943945,-16.361902054815086,-51.55715988814804,2.2413793103448274,0.43342661896621376,0.5122950819672131,BAIXO
MOSSÂMEDES,2026-06-19,0.0,5,6,4,1,0.002096984034863,-16.138102134284225,-50.1950255261411,1.875,0.43321370451117314,0.5081967213114754,BAIXO
MATRINCHÃ,2026-06-19,0.0,3,6,4,1,0.0013534407520788,-15.332925918372275,-50.75330754036656,3.5454545454545454,0.43167442420630253,0.5040983606557377,BAIXO
UIRAPURU,2026-06-19,0.0,3,6,4,1,0.0023568919152404,-14.1658704952681,-49.9660646641288,1.8823529411764703,0.42934170163748364,0.5,BAIXO
ITAPIRAPUÃ,2026-06-19,0.0,2,6,4,1,0.0013726384932431,-15.75718984044679,-50.7465760866374,2.4242424242424243,0.42549640553489115,0.4959016393442623,BAIXO
RUBIATABA,2026-06-19,0.0,2,6,4,1,0.0012448996770349,-15.197347826385103,-49.85541149603293,2.3846153846153846,0.42405664161496065,0.4918032786885246,BAIXO
NOVA IGUAÇU DE GOIÁS,2026-06-19,0.0,2,6,4,1,0.0017403490740043,-14.335840325249317,-49.31212409374217,2.3043478260869565,0.4195041591405761,0.48770491803278687,BAIXO
TROMBAS,2026-06-19,0.0,2,6,4,1,0.0034592852828639,-13.45565441683509,-48.69444724203579,1.818181818181818,0.41861935127390804,0.48360655737704916,BAIXO
FORMOSO,2026-06-19,0.0,2,6,4,1,0.0027740735982326,-13.7157591183698,-48.828383563721786,1.8333333333333333,0.4172727756692359,0.47950819672131145,BAIXO
CHAPADÃO DO CÉU,2026-06-19,0.0,2,6,4,1,0.0062939056032299,-18.41837474627293,-52.650980123044505,15.272727272727272,0.41652623938922423,0.47540983606557374,BAIXO
FAZENDA NOVA,2026-06-19,0.0,6,6,4,1,0.0038077981224609,-16.080235263157753,-50.93137671149489,2.647058823529412,0.41630052294438663,0.4713114754098361,BAIXO
CAMPOS BELOS,2026-06-19,0.0,2,6,4,1,0.0053953036418114,-12.986995843211018,-46.42094914457776,2.765957446808511,0.41439933295223347,0.4672131147540984,BAIXO
IPORÁ,2026-06-19,0.0,3,6,4,1,0.0012958475285861,-16.39958999360689,-51.174760035598624,1.6444444444444444,0.40469356308701054,0.46311475409836067,BAIXO
BRITÂNIA,2026-06-19,0.0,2,6,4,1,0.0024949679766909,-15.098256086081884,-51.20240394542521,1.631578947368421,0.4031053892647783,0.45901639344262296,BAIXO
GOIANÁPOLIS,2026-06-19,0.0,3,6,4,1,0.0013534407520788,-16.52798048733482,-49.09369703759325,1.7692307692307692,0.400505240913987,0.45491803278688525,BAIXO
DIORAMA,2026-06-19,0.0,3,6,4,1,0.0011001782436429,-16.22661972062711,-51.389931230721885,4.384615384615385,0.3960137581876069,0.45081967213114754,BAIXO
NOVO GAMA,2026-06-19,0.0,3,6,4,1,0.0008040900049175,-16.10973108267564,-48.07263803458282,1.9787234042553192,0.39480365654072325,0.44672131147540983,BAIXO
RIALMA,2026-06-19,0.0,2,6,4,1,0.0012478531756755,-15.319958184167618,-49.53010326892392,1.5483870967741935,0.3940689790245484,0.4426229508196721,BAIXO
ARAGARÇAS,2026-06-19,0.0,3,6,4,1,0.0016207323790579,-15.9954744133776,-52.195114826594455,1.809523809523809,0.39288538461696704,0.4385245901639344,BAIXO
MONTIVIDIU,2026-06-19,0.0,3,6,4,1,0.0017492095699262,-17.302834146829042,-51.19610715003383,1.625,0.3924100599280567,0.4344262295081967,BAIXO
CIDADE OCIDENTAL,2026-06-19,0.0,3,6,4,1,0.0009805615486965,-16.103552382328953,-47.86022791897977,1.9230769230769231,0.39205251238847927,0.430327868852459,BAIXO
DIVINÓPOLIS DE GOIÁS,2026-06-19,0.0,1,6,4,1,0.001997303455741,-13.286303429360114,-46.52383420100133,3.909090909090909,0.39103457049240936,0.4262295081967213,BAIXO
VIANÓPOLIS,2026-06-19,0.0,3,6,4,1,0.0007620026492882,-16.848283967930477,-48.46851922795139,2.1052631578947367,0.3842058960229799,0.42213114754098363,BAIXO
MAURILÂNDIA,2026-06-19,0.1,0,6,4,1,0.0023303104274746,-18.03750092993941,-50.36063856125698,4.36,0.3821682685397532,0.4180327868852459,BAIXO
VALPARAÍSO DE GOIÁS,2026-06-19,0.0,3,6,4,1,0.0004061060630896,-16.08965315501241,-47.98624179015667,2.023809523809524,0.3802178300347134,0.4139344262295082,BAIXO
PETROLINA DE GOIÁS,2026-06-19,0.0,3,6,4,1,0.0007716015198704,-16.11674724559263,-49.318512368591655,3.56,0.3652782327073462,0.4098360655737705,BAIXO
MAMBAÍ,2026-06-19,0.0,2,6,4,1,0.005212186726091,-14.387997990140692,-46.051088000383096,5.1923076923076925,0.36232392119114737,0.4057377049180328,BAIXO
JANDAIA,2026-06-19,0.0,3,6,4,1,0.0011570330924755,-17.140823818775164,-50.18439081477384,3.55,0.36219523498251927,0.4016393442622951,BAIXO
GUARINOS,2026-06-19,0.0,2,6,4,1,0.0012316089331519,-14.677563689499642,-49.737239130745,2.75,0.35928218865080375,0.3975409836065574,BAIXO
PILAR DE GOIÁS,2026-06-19,0.0,2,6,4,1,0.0022653334573802,-14.563053642806697,-49.51029317946296,1.4210526315789471,0.3581026542382975,0.39344262295081966,BAIXO
SIMOLÂNDIA,2026-06-19,0.0,2,6,4,1,0.0011799227069405,-14.434586326028946,-46.58882654789143,2.5789473684210527,0.35588260007271755,0.38934426229508196,BAIXO
SANTO ANTÔNIO DA BARRA,2026-06-19,0.0,3,6,4,1,0.0012611439195585,-17.55961474151254,-50.63551540775774,3.2962962962962963,0.35110269821794515,0.38524590163934425,BAIXO
CAMPOS VERDES,2026-06-19,0.0,2,6,4,1,0.0009022938347192,-14.200869051269477,-49.67078102066461,3.28,0.350519232243552,0.38114754098360654,BAIXO
TEREZÓPOLIS DE GOIÁS,2026-06-19,0.0,5,6,4,1,0.0007612642746281,-16.451781768427683,-49.07980840150495,2.125,0.35030315340568846,0.3770491803278688,BAIXO
LEOPOLDO DE BULHÕES,2026-06-19,0.0,3,6,4,1,0.0009037705840395,-16.556636131106096,-48.89337232999825,1.9428571428571428,0.3500068744684396,0.3729508196721312,BAIXO
SÃO FRANCISCO DE GOIÁS,2026-06-19,0.0,2,6,4,1,0.000774555018511,-15.930856959393246,-49.25922517675899,2.2580645161290325,0.3460889190543127,0.36885245901639346,BAIXO
URUANA,2026-06-19,0.0,2,6,4,1,0.0009901604192786,-15.537768557761284,-49.65225244233562,2.5294117647058822,0.3451953454959835,0.36475409836065575,BAIXO
AURILÂNDIA,2026-06-19,0.0,3,6,4,1,0.00081516562482,-16.694217641941965,-50.54701395836094,3.333333333333333,0.340810713916942,0.36065573770491804,BAIXO
HIDROLINA,2026-06-19,0.0,2,6,4,1,0.0009628405568526,-14.78351237067298,-49.29993852784245,2.740740740740741,0.3392446673360444,0.35655737704918034,BAIXO
PEROLÂNDIA,2026-06-19,0.2,0,6,4,1,0.0024462352491202,-17.53130275403183,-52.205615580294655,2.4074074074074074,0.3374743855776842,0.3524590163934426,BAIXO
PONTALINA,2026-06-19,0.0,3,6,4,1,0.0014390922126578,-17.54112629308756,-49.56409835329973,1.3846153846153846,0.33676986501006445,0.3483606557377049,BAIXO
PANAMÁ,2026-06-19,0.0,3,6,4,1,0.0011511260951942,-18.199317807602675,-49.40058551258638,2.875,0.3358379708505514,0.3442622950819672,BAIXO
JAUPACI,2026-06-19,0.0,2,6,4,1,0.0010263407776266,-16.20973022325548,-51.05550430467066,4.142857142857143,0.3327869261955596,0.3401639344262295,BAIXO
INACIOLÂNDIA,2026-06-19,0.0,3,6,4,1,0.0013017545258674,-18.422363375480977,-49.93462547993578,7.142857142857143,0.3257700390398958,0.3360655737704918,BAIXO
GAMELEIRA DE GOIÁS,2026-06-19,0.0,3,6,4,1,0.0005648566150247,-16.393084698423134,-48.71174726623623,2.0303030303030303,0.32484465758926767,0.3319672131147541,BAIXO
NERÓPOLIS,2026-06-19,0.0,5,6,4,1,0.0010041895378217,-16.425056587028248,-49.17034091583095,1.8571428571428568,0.3238540539898947,0.32786885245901637,BAIXO
MAIRIPOTABA,2026-06-19,0.0,3,6,4,1,0.0006999791778345,-17.295161367113327,-49.44670063542476,3.347826086956522,0.3238032829851245,0.3237704918032787,BAIXO
PROFESSOR JAMIL,2026-06-19,0.0,5,6,4,1,0.0010381547721892,-17.327766046172016,-49.24779400353557,2.333333333333333,0.31568960585051,0.319672131147541,BAIXO
CARMO DO RIO VERDE,2026-06-19,0.0,2,6,4,1,0.0007354211615224,-15.426910428711976,-49.742093983937615,2.5217391304347827,0.3090512054689997,0.3155737704918033,BAIXO
CACHOEIRA ALTA,2026-06-19,0.1,0,6,4,1,0.0012825567847032,-18.461936889018936,-50.98679602687277,3.4827586206896552,0.305538610767008,0.3114754098360656,BAIXO
ESTRELA DO NORTE,2026-06-19,0.0,1,6,4,1,0.0006290952104589,-13.815008598965576,-49.04348551590312,3.269230769230769,0.3048303909955285,0.3073770491803279,BAIXO
ALTO HORIZONTE,2026-06-19,0.0,2,6,4,1,0.0009111543306412,-14.162393972965113,-49.45279801107309,2.4705882352941178,0.29902916123932766,0.30327868852459017,BAIXO
GOIANDIRA,2026-06-19,0.0,5,6,4,1,0.0006940721805532,-18.109377022796597,-48.1276924891904,1.5555555555555556,0.28607695893602,0.29918032786885246,BAIXO
GOIANIRA,2026-06-19,0.0,3,6,4,1,0.0006224498385174,-16.508575399186565,-49.41469315151372,1.4594594594594594,0.27997227747573017,0.29508196721311475,BAIXO
PORTELÂNDIA,2026-06-19,0.1,0,6,4,1,0.001209457693347,-17.363742774222114,-52.70044038012558,2.230769230769231,0.27657872559713736,0.29098360655737704,BAIXO
DAVINÓPOLIS,2026-06-19,0.0,3,6,4,1,0.0007597875253077,-18.113605118464037,-47.53297332981958,2.357142857142857,0.2759913501123485,0.28688524590163933,BAIXO
ABADIA DE GOIÁS,2026-06-19,0.0,3,6,4,1,0.0004105363110506,-16.78893560640398,-49.43279950787229,1.7179487179487178,0.2742030828576317,0.2827868852459016,BAIXO
CACHOEIRA DE GOIÁS,2026-06-19,0.0,3,6,4,1,0.0008033516302574,-16.743051878299504,-50.687902715799886,1.9047619047619049,0.2733676241722257,0.2786885245901639,BAIXO
CACHOEIRA DOURADA,2026-06-19,0.0,3,6,4,1,0.0009392125677274,-18.46651639403071,-49.55177475564167,2.5,0.2733437863743261,0.27459016393442626,BAIXO
OUVIDOR,2026-06-19,0.0,3,6,4,1,0.0006859500592914,-18.22269684670895,-47.73785347238525,1.36,0.2729047016048391,0.27049180327868855,BAIXO
IPIRANGA DE GOIÁS,2026-06-19,0.0,2,6,4,1,0.0008085202528785,-15.155239440421736,-49.6667347648474,1.8928571428571428,0.27132825437568353,0.26639344262295084,BAIXO
TURVÂNIA,2026-06-19,0.0,3,6,4,1,0.0005109552648328,-16.5749332857626,-50.13386843949185,2.9166666666666665,0.26371957617058867,0.26229508196721313,BAIXO
CASTELÂNDIA,2026-06-19,0.1,0,6,4,1,0.0014516445818805,-18.147960130853747,-50.30679359237395,2.7222222222222223,0.2563990974433863,0.2581967213114754,BAIXO
SÃO LUÍS DE MONTES BELOS,2026-06-19,0.0,3,6,4,1,0.0005833159815288,-16.469151982594024,-50.3923408472066,2.25,0.25151869827909684,0.2540983606557377,BAIXO
CATURAÍ,2026-06-19,0.0,5,6,4,1,0.0004157049336718,-16.46434919145576,-49.55619428460128,2.125,0.24975538288026017,0.25,BAIXO
EDEALINA,2026-06-19,0.0,4,6,4,1,0.0006482929516231,-17.41358594607326,-49.76627082483966,1.75,0.24607317049610303,0.2459016393442623,BAIXO
CERES,2026-06-19,0.0,3,6,4,1,0.0003994606911482,-15.280732075215544,-49.628100932957885,2.357142857142857,0.24519403480807095,0.24180327868852458,BAIXO
ITAUÇU,2026-06-19,0.0,3,6,4,1,0.0005353216286182,-16.19395275886309,-49.59347382261099,1.8,0.24119773055225682,0.23770491803278687,BAIXO
APARECIDA DO RIO DOCE,2026-06-19,0.0,3,6,4,1,0.0009613638075323,-18.2275046528764,-51.298408339959074,1.3571428571428572,0.24060069405575252,0.2336065573770492,BAIXO
AMORINÓPOLIS,2026-06-19,0.0,3,6,4,1,0.0004725597825043,-16.66506804069733,-51.10984947764403,2.1875,0.23553162255632698,0.22950819672131148,BAIXO
RIO QUENTE,2026-06-19,0.0,3,6,4,1,0.0006002985987125,-17.794891918495523,-48.787827332868765,1.8571428571428568,0.22748760640358326,0.22540983606557377,BAIXO
MOIPORÁ,2026-06-19,0.0,3,6,4,1,0.0005818392322084,-16.48291057823502,-50.79468243580173,2.4615384615384617,0.22738040222220063,0.22131147540983606,BAIXO
ARAGOIÂNIA,2026-06-19,0.0,5,6,4,1,0.0003322685970733,-16.91901903566752,-49.41650422930775,1.4666666666666666,0.2255084251946436,0.21721311475409835,BAIXO
AVELINÓPOLIS,2026-06-19,0.0,5,6,4,1,0.0003972455671677,-16.51911947366258,-49.76146747111399,2.125,0.22487748468551852,0.21311475409836064,BAIXO
CROMÍNIA,2026-06-19,0.0,3,6,4,1,0.0004969261462897,-17.253757641416556,-49.343018999846976,1.933333333333333,0.2238411533329029,0.20901639344262296,BAIXO
CRISTIANÓPOLIS,2026-06-19,0.0,4,6,4,1,0.0005449204992003,-17.206932724384384,-48.69296888350953,1.4615384615384617,0.2212858454800113,0.20491803278688525,BAIXO
HEITORAÍ,2026-06-19,0.0,2,6,4,1,0.0004681295345433,-15.737018243255712,-49.79072401383959,1.8,0.21901577148046894,0.20081967213114754,BAIXO
MARZAGÃO,2026-06-19,0.0,3,6,4,1,0.0003824780739644,-17.955558865377707,-48.675183437794566,2.111111111111111,0.2141697627717227,0.19672131147540983,BAIXO
BURITINÓPOLIS,2026-06-19,0.0,3,6,4,1,0.0005914381027906,-14.42314966215634,-46.33303829144667,1.6,0.20613142671921386,0.19262295081967212,BAIXO
BONFINÓPOLIS,2026-06-19,0.0,3,6,4,1,0.0004171816829921,-16.593720196431793,-49.00153550440518,1.375,0.20487931728209766,0.1885245901639344,BAIXO
VARJÃO,2026-06-19,0.1,0,6,4,1,0.0008159039994801,-17.057239672517852,-49.63849902778105,1.9166666666666667,0.20423867602871487,0.18442622950819673,BAIXO
ISRAELÂNDIA,2026-06-19,0.0,5,6,4,1,0.0006217114638572,-16.357079235135966,-50.868874162608,2.0,0.20069467589628384,0.18032786885245902,BAIXO
SÃO JOÃO DA PARAÚNA,2026-06-19,0.0,4,6,4,1,0.0003381755943546,-16.83029448609981,-50.38551384054304,1.8571428571428568,0.19179597973216025,0.1762295081967213,BAIXO
SÃO MIGUEL DO PASSA QUATRO,2026-06-19,0.0,3,6,4,1,0.0004127514350311,-17.005010859807335,-48.6779096365864,1.181818181818182,0.1898504027438862,0.1721311475409836,BAIXO
CUMARI,2026-06-19,0.0,3,6,4,1,0.0004880656503677,-18.301979326576244,-48.12847505289865,1.2941176470588236,0.1870216444483072,0.1680327868852459,BAIXO
NAZÁRIO,2026-06-19,0.0,5,6,4,1,0.000457792289301,-16.599868890591072,-49.81683600889826,1.3333333333333333,0.18306632486103455,0.16393442622950818,BAIXO
DAMIANÓPOLIS,2026-06-19,0.0,2,6,4,1,0.0008934333387973,-14.591784557452115,-46.16138493743546,1.1428571428571428,0.17908438976325242,0.1598360655737705,BAIXO
CAMPO LIMPO DE GOIÁS,2026-06-19,0.0,3,6,4,1,0.0002665532523188,-16.299018349281013,-49.110030575894335,1.5625,0.176265001481684,0.1557377049180328,BAIXO
JOVIÂNIA,2026-06-19,0.0,3,6,4,1,0.0003374372196945,-17.796625241812514,-49.645908107666806,1.8888888888888888,0.17521267894995343,0.15163934426229508,BAIXO
BURITI ALEGRE,2026-06-19,0.0,3,6,4,1,0.0005065250168718,-18.058745550168023,-49.05309547296925,1.1666666666666667,0.17305753436951474,0.14754098360655737,BAIXO
FIRMINÓPOLIS,2026-06-19,0.0,3,6,4,1,0.0003101173572684,-16.632875809432132,-50.31542780810252,2.2,0.17253080586801012,0.14344262295081966,BAIXO
PALMINÓPOLIS,2026-06-19,0.0,3,6,4,1,0.0003160243545497,-16.802402853215252,-50.18205094632173,2.142857142857143,0.17024668329587717,0.13934426229508196,BAIXO
SANTO ANTÔNIO DE GOIÁS,2026-06-19,0.0,3,6,4,1,0.0003182394785302,-16.459177028614274,-49.28880054422419,1.625,0.16672494802708984,0.13524590163934427,BAIXO
NOVA VENEZA,2026-06-19,0.0,3,6,4,1,0.0002525241337757,-16.37386734685885,-49.29800513158261,1.6,0.16406158937851972,0.13114754098360656,BAIXO
SANCLERLÂNDIA,2026-06-19,0.0,3,6,4,1,0.0003374372196945,-16.31910344708521,-50.396968692158616,1.5,0.15987738419775127,0.12704918032786885,BAIXO
ITAGUARU,2026-06-19,0.0,3,6,4,1,0.000186070414361,-15.78281026598368,-49.60758994825582,5.555555555555555,0.15764906377235302,0.12295081967213115,BAIXO
SÃO PATRÍCIO,2026-06-19,0.0,2,6,4,1,0.0001831169157204,-15.354159533666005,-49.800363421788425,4.5,0.15304641490672471,0.11885245901639344,BAIXO
TRÊS RANCHOS,2026-06-19,0.0,3,6,4,1,0.0001469365573724,-18.316873966288444,-47.74838358478794,2.3125,0.1513104182006566,0.11475409836065574,BAIXO
MORRO AGUDO DE GOIÁS,2026-06-19,0.0,2,6,4,1,0.0002894428667839,-15.304498898497632,-49.98811127634744,2.6666666666666665,0.1485498892354275,0.11065573770491803,BAIXO
NOVA AMÉRICA,2026-06-19,0.0,2,6,4,1,0.0003160243545497,-15.06192828329916,-49.9617065714417,2.5,0.14787679392424274,0.10655737704918032,BAIXO
BRAZABRANTES,2026-06-19,0.0,5,6,4,1,0.0002414485138733,-16.38638492779754,-49.3872036236477,1.1428571428571428,0.14655813172741722,0.10245901639344263,BAIXO
CAMPESTRE DE GOIÁS,2026-06-19,0.0,5,6,4,1,0.0002392333898928,-16.796398326655236,-49.67954670252682,2.0,0.1427820367112233,0.09836065573770492,BAIXO
SANTA BÁRBARA DE GOIÁS,2026-06-19,0.0,5,6,4,1,0.0001602273012553,-16.595488741575974,-49.68567213368231,2.0,0.137751568506987,0.0942622950819672,BAIXO
PARANAIGUARA,2026-06-19,0.0,3,6,4,1,0.0004171816829921,-18.80418019132733,-50.7270395812168,17.666666666666668,0.13701299702830635,0.09016393442622951,BAIXO
OURO VERDE DE GOIÁS,2026-06-19,0.0,3,6,4,1,0.0001971460342635,-16.27053798049984,-49.21511768318319,1.4,0.13400499510183508,0.0860655737704918,BAIXO
LAGOA SANTA,2026-06-19,0.0,3,6,4,1,0.0002879661174635,-19.18411260260326,-51.28965509319911,1.75,0.13159877787182545,0.08196721311475409,BAIXO
ITAGUARI,2026-06-19,0.0,2,6,4,1,0.0002813207455221,-15.958521857049124,-49.62738930061074,1.3333333333333333,0.12800168864911807,0.0778688524590164,BAIXO
CALDAZINHA,2026-06-19,0.0,4,6,4,1,0.00022668102067,-16.743499656574723,-48.98542839082745,1.25,0.1276786204664102,0.07377049180327869,BAIXO
SANTA ROSA DE GOIÁS,2026-06-19,0.0,2,6,4,1,8.934333387973059e-05,-16.05154736618163,-49.49362956819317,1.6666666666666667,0.10965167890077801,0.06967213114754098,BAIXO
DAMOLÂNDIA,2026-06-19,0.0,3,6,4,1,4.504085426994682e-05,-16.248604825879593,-49.32391944079821,1.4285714285714286,0.10840368028574213,0.06557377049180328,BAIXO
ANHANGUERA,2026-06-19,0.0,3,6,4,1,8.122121261793689e-05,-18.298455841186364,-48.23644304764,9.0,0.10263278877434945,0.06147540983606557,BAIXO
NOVA AURORA,2026-06-19,0.0,3,6,4,1,9.525033116103507e-05,-18.08032677087066,-48.312556451501656,1.5,0.09889991042542752,0.05737704918032787,BAIXO
RIANÁPOLIS,2026-06-19,0.0,2,6,4,1,0.0004452399200783,-15.471388795648876,-49.44433543377273,1.0,0.09352857605306394,0.05327868852459016,BAIXO
BURITI DE GOIÁS,2026-06-19,0.0,3,6,4,1,0.0004459782947384,-16.117288760460852,-50.42866144294369,1.0,0.08453085776422573,0.04918032786885246,BAIXO
NOVO BRASIL,2026-06-19,0.0,2,6,4,1,0.0004157049336718,-16.06446829111038,-50.5877548005677,1.0,0.08302912774593435,0.045081967213114756,BAIXO
CÓRREGO DO OURO,2026-06-19,0.0,3,6,4,1,0.0003691873300815,-16.371262238930456,-50.57972804506588,1.0,0.08256253144044337,0.040983606557377046,BAIXO
AMERICANO DO BRASIL,2026-06-19,0.0,3,6,4,1,0.0002850126188229,-16.26768690474456,-50.03356390050078,1.0,0.07753089667192953,0.036885245901639344,BAIXO
TAQUARAL DE GOIÁS,2026-06-19,0.0,2,6,4,1,0.0003042103599871,-16.03498818375823,-49.60400920317701,1.0,0.07388881024370987,0.03278688524590164,BAIXO
ADELÂNDIA,2026-06-19,0.0,3,6,4,1,0.0001786866677594,-16.353762350998142,-50.17813605937417,1.0,0.06649101481566207,0.028688524590163935,BAIXO
ARAÇU,2026-06-19,0.0,4,6,4,1,0.0001417679347513,-16.334093281250002,-49.70501984375,1.0,0.06373529427518551,0.02459016393442623,BAIXO
PALMELO,2026-06-19,0.0,4,6,4,1,0.0001122329483447,-17.29286227354363,-48.39789764949551,1.0,0.05919135940771726,0.020491803278688523,BAIXO
JESÚPOLIS,2026-06-19,0.0,2,6,4,1,9.67270804813612e-05,-15.96442854961832,-49.40223259541985,1.0,0.056365454919592425,0.01639344262295082,BAIXO
GUARAÍTA,2026-06-19,0.0,2,6,4,1,0.0001203550696065,-15.655710917941402,-50.06909189298791,1.0,0.05630182973966088,0.012295081967213115,BAIXO
ÁGUA LIMPA,2026-06-19,0.0,3,6,4,1,2.215123980489188e-05,-17.931234278399998,-48.799315130206665,0.0,0.010526697614092233,0.00819672131147541,BAIXO
ALOÂNDIA,2026-06-19,0.0,4,6,4,1,6.276184611386032e-05,-17.68815894117647,-49.45926305882353,0.0,0.010446059332157845,0.004098360655737705,BAIXO
NIQUELÂNDIA,2026-06-20,0.0,3,6,5,1,0.0702666861597576,-14.555710756178348,-48.323001755813664,16.54513888888889,0.9575994586729715,1.0,ALTO
CAVALCANTE,2026-06-20,0.0,3,6,5,1,0.0610547238995633,-13.605372533203356,-47.74998846789225,13.759398496240602,0.9288889961616902,0.9959016393442623,ALTO
CAIAPÔNIA,2026-06-20,0.0,4,6,5,1,0.0142749973049324,-17.02333953529842,-51.80903000805655,7.114832535885167,0.8985604962268676,0.9918032786885246,ALTO
CRISTALINA,2026-06-20,0.0,4,6,5,1,0.0132176447915789,-16.729108968671913,-47.51949739378938,4.318181818181818,0.8900020640079335,0.9877049180327869,ALTO
BARRO ALTO,2026-06-20,0.0,3,6,5,1,0.0070197278941702,-14.9246949793272,-48.89831318663708,2.274193548387097,0.8899005874283558,0.9836065573770492,ALTO
JATAÍ,2026-06-20,0.0,4,6,5,1,0.0181485107721479,-17.885693026802887,-51.7369228480587,4.259668508287293,0.8887076141030431,0.9795081967213115,ALTO
IPAMERI,2026-06-20,0.0,5,6,5,1,0.0082203250915953,-17.453901960073118,-47.994679662267664,5.139896373056994,0.8735165434682622,0.9754098360655737,ALTO
FORMOSA,2026-06-20,0.0,3,6,5,1,0.0326974450760009,-15.366385635807053,-47.255312528185605,4.150837988826815,0.8716770929074538,0.9713114754098361,ALTO
LUZIÂNIA,2026-06-20,0.0,4,6,5,1,0.0070248965167913,-16.41158591502055,-47.9402484582945,3.549504950495049,0.8656131392245051,0.9672131147540983,ALTO
PORANGATU,2026-06-20,0.0,2,6,5,1,0.0130825222287691,-13.295151272205969,-49.25062116604489,8.9,0.854873562034357,0.9631147540983607,ALTO
NOVA CRIXÁS,2026-06-20,0.0,3,6,5,1,0.0140461011602819,-14.109081491545986,-50.60644025233707,11.0,0.8521078577625397,0.9590163934426229,ALTO
PLANALTINA,2026-06-20,0.0,3,6,5,1,0.0220286696113048,-15.297339114149969,-47.82804373552916,6.205128205128205,0.8384783159749878,0.9549180327868853,ALTO
CATALÃO,2026-06-20,0.0,5,6,5,1,0.0067051802889407,-17.859620758114687,-47.65795514226879,6.779220779220779,0.8341775977202351,0.9508196721311475,ALTO
SÃO JOÃO D'ALIANÇA,2026-06-20,0.0,3,6,5,1,0.0174500083436336,-14.47092130372994,-47.44566869827519,4.917582417582418,0.8251585260805889,0.9467213114754098,ALTO
GOIÂNIA,2026-06-20,0.0,4,6,5,1,0.0056264149104425,-16.627186847284758,-49.26892340187793,3.121387283236994,0.8214075370297698,0.9426229508196722,ALTO
FLORES DE GOIÁS,2026-06-20,0.0,3,6,5,1,0.0204832514475835,-14.69582900883936,-46.88334718801356,4.961538461538462,0.8078439514398665,0.9385245901639344,ALTO
MONTE ALEGRE DE GOIÁS,2026-06-20,0.0,4,6,5,1,0.0256814090551314,-13.350813143278856,-46.98514054795142,5.746268656716418,0.7905982878419584,0.9344262295081968,ALTO
PARAÚNA,2026-06-20,0.0,4,6,5,1,0.0093854803053326,-17.025229406670206,-50.64132283176662,7.314814814814815,0.7861816869754087,0.930327868852459,ALTO
RIO VERDE,2026-06-20,0.5,0,6,5,1,0.020077883759154,-17.80973337888139,-51.01793797116709,5.575418994413408,0.7729320416304711,0.9262295081967213,ALTO
PADRE BERNARDO,2026-06-20,0.0,3,6,5,1,0.0171465363583066,-15.387542873502616,-48.24234321428453,3.821138211382114,0.7720555368103923,0.9221311475409836,ALTO
SÃO MIGUEL DO ARAGUAIA,2026-06-20,0.0,2,6,5,1,0.0108009445288652,-13.03457954651454,-50.31087167757311,5.801418439716312,0.7691905015053088,0.9180327868852459,ALTO
MINEIROS,2026-06-20,1.1,0,6,5,1,0.0275280840801993,-17.758011413392754,-52.819223041509886,9.509174311926603,0.7606874803046804,0.9139344262295082,ALTO
SÃO DOMINGOS,2026-06-20,0.0,4,6,5,1,0.0184815177438814,-13.484742034647564,-46.3952483067699,5.164179104477612,0.7524117678845278,0.9098360655737705,ALTO
URUAÇU,2026-06-20,0.0,4,6,5,1,0.0084898318425548,-14.424659723475168,-49.081429732121045,2.8306451612903225,0.7484768912701528,0.9057377049180327,ALTO
MINAÇU,2026-06-20,0.0,3,6,5,1,0.0177172999706126,-13.517945024690189,-48.337109129169214,5.321428571428571,0.7407717138343056,0.9016393442622951,ALTO
CRIXÁS,2026-06-20,0.0,3,6,5,1,0.0142565379384284,-14.80659158075239,-50.06889904182484,3.504,0.7407312789094608,0.8975409836065574,MÉDIO
ALTO PARAÍSO DE GOIÁS,2026-06-20,0.0,3,6,5,1,0.0136045531135044,-14.194794675020932,-47.58800995260268,5.992063492063492,0.73000246530093,0.8934426229508197,MÉDIO
CAMPO ALEGRE DE GOIÁS,2026-06-20,0.0,6,6,5,1,0.0035722566058688,-17.478774899824252,-47.74286914863833,3.197674418604651,0.7145903037948044,0.889344262295082,MÉDIO
JUSSARA,2026-06-20,0.2,0,6,5,1,0.0097384233928906,-15.53774041723269,-51.30291227238109,7.694117647058824,0.6981836760607945,0.8852459016393442,MÉDIO
ÁGUA FRIA DE GOIÁS,2026-06-20,0.0,3,6,5,1,0.0101031804750111,-14.959240097702764,-47.8720093319421,3.768421052631579,0.6973271033422027,0.8811475409836066,MÉDIO
NOVA ROMA,2026-06-20,0.0,3,6,5,1,0.0121329724157994,-13.714942640576536,-47.01834764226104,5.73015873015873,0.6952240590380363,0.8770491803278688,MÉDIO
CALDAS NOVAS,2026-06-20,0.0,4,6,5,1,0.0032953661083077,-17.728174181219167,-48.609976896734885,3.2033898305084745,0.6944605786293475,0.8729508196721312,MÉDIO
VILA PROPÍCIO,2026-06-20,0.0,3,6,5,1,0.0090901304412674,-15.174992710889834,-48.74270162202432,3.1449275362318843,0.6795297038099275,0.8688524590163934,MÉDIO
SERRANÓPOLIS,2026-06-20,0.3,0,6,5,1,0.0084580817321678,-18.245444254046,-52.13858145093347,3.9432624113475176,0.6789948001991061,0.8647540983606558,MÉDIO
CAMPINAÇU,2026-06-20,0.0,2,6,5,1,0.0107566420492554,-13.868181231222769,-48.55699372818981,7.882352941176471,0.6666940119674207,0.860655737704918,MÉDIO
ITUMBIARA,2026-06-20,0.2,0,6,5,1,0.0076968174575397,-18.36303539838409,-49.51316782799183,5.170940170940171,0.6583684940737797,0.8565573770491803,MÉDIO
BOM JARDIM DE GOIÁS,2026-06-20,0.0,4,6,5,1,0.006982809161162,-16.169600227866493,-52.08811808319062,3.295238095238095,0.6578142175318801,0.8524590163934426,MÉDIO
SILVÂNIA,2026-06-20,0.0,4,6,5,1,0.0024809388581478,-16.63901076782678,-48.5989267608625,2.824074074074074,0.6563956083679295,0.8483606557377049,MÉDIO
VILA BOA,2026-06-20,0.0,6,6,5,1,0.0051088142736682,-14.984552679127855,-47.06563145675107,4.597402597402597,0.6537795871896636,0.8442622950819673,MÉDIO
PIRENÓPOLIS,2026-06-20,0.0,3,6,5,1,0.0060856839490639,-15.78834605245366,-48.98248540918748,2.509433962264151,0.6505882393510981,0.8401639344262295,MÉDIO
ARAGUAPAZ,2026-06-20,0.0,3,6,5,1,0.0072685601546451,-15.139882625109504,-50.2765366521584,3.544117647058824,0.6477374531897188,0.8360655737704918,MÉDIO
ANÁPOLIS,2026-06-20,0.0,4,6,5,1,0.0025665903187268,-16.327248789404404,-48.95399874795129,2.279279279279279,0.6469672442793787,0.8319672131147541,MÉDIO
MIMOSO DE GOIÁS,2026-06-20,0.0,3,6,5,1,0.0153441638128486,-15.0302729730905,-48.33825202036574,5.0,0.6445353396335843,0.8278688524590164,MÉDIO
MORRINHOS,2026-06-20,0.0,4,6,5,1,0.0046879407173752,-17.747080471125827,-49.18201398317284,2.7681159420289854,0.6404856492903792,0.8237704918032787,MÉDIO
PIRACANJUBA,2026-06-20,0.0,4,6,5,1,0.0031550749228767,-17.359788624438703,-49.008963459189445,2.4878048780487805,0.639330562324272,0.819672131147541,MÉDIO
GOIÁS,2026-06-20,0.0,4,6,5,1,0.006679337175835,-15.910637681321438,-50.22587344128038,3.4526315789473685,0.6380796921671703,0.8155737704918032,MÉDIO
DOVERLÂNDIA,2026-06-20,0.1,0,6,5,1,0.0061203875580916,-16.786897298262215,-52.47629182084975,6.219512195121951,0.62666406220768,0.8114754098360656,MÉDIO
POSSE,2026-06-20,0.0,4,6,5,1,0.0078828878719008,-14.196997106543726,-46.3411011854588,3.027027027027027,0.6171771113089798,0.8073770491803278,MÉDIO
ALVORADA DO NORTE,2026-06-20,0.0,3,6,5,1,0.0069111868191262,-14.578913930149612,-46.62741788371978,4.3125,0.6120103193919209,0.8032786885245902,MÉDIO
ARUANÃ,2026-06-20,0.0,3,6,5,1,0.0055090133394766,-14.80056233565119,-50.9660645783424,5.5,0.6117343170400462,0.7991803278688525,MÉDIO
CEZARINA,2026-06-20,0.0,6,6,5,1,0.0010817188771388,-17.034689299189036,-49.7756844762151,1.1111111111111112,0.60096177346827,0.7950819672131147,MÉDIO
COLINAS DO SUL,2026-06-20,0.0,3,6,5,1,0.0162671321380524,-13.94148455899416,-48.086108285372966,5.053571428571429,0.599345130128958,0.7909836065573771,MÉDIO
MONTIVIDIU DO NORTE,2026-06-20,0.0,3,6,5,1,0.0055422401991839,-13.157797966650936,-48.70583895092373,7.462962962962963,0.5972468088294728,0.7868852459016393,MÉDIO
ANICUNS,2026-06-20,0.0,5,6,5,1,0.0028693239293936,-16.386618352812665,-49.96569453715062,2.6095238095238096,0.5959533566123151,0.7827868852459017,MÉDIO
HIDROLÂNDIA,2026-06-20,0.0,6,6,5,1,0.001757331691188,-17.00595303936355,-49.2631795818899,2.1594202898550723,0.5930871438380484,0.7786885245901639,MÉDIO
SENADOR CANEDO,2026-06-20,0.0,6,6,5,1,0.0015070226813928,-16.72174558705297,-49.12425814633367,2.8767123287671232,0.5916116450980944,0.7745901639344263,MÉDIO
SÍTIO D'ABADIA,2026-06-20,0.0,3,6,5,1,0.0063869408104104,-14.729138480039394,-46.29929381822457,5.327586206896552,0.5907729080185201,0.7704918032786885,MÉDIO
ITABERAÍ,2026-06-20,0.0,3,6,5,1,0.0036438789479047,-16.076051965486666,-49.86875528845477,3.0,0.5895981786915955,0.7663934426229508,MÉDIO
ORIZONA,2026-06-20,0.0,5,6,5,1,0.0020201930702061,-17.02708940860277,-48.16569268300261,2.0625,0.5850990912348464,0.7622950819672131,MÉDIO
COCALZINHO DE GOIÁS,2026-06-20,0.0,3,6,5,1,0.0042582066651603,-15.644454575968023,-48.59695917813067,2.492063492063492,0.5824683945396507,0.7581967213114754,MÉDIO
PIRANHAS,2026-06-20,0.0,4,6,5,1,0.0030155221121059,-16.447787530113146,-51.854078169184085,3.371794871794872,0.5823963122585912,0.7540983606557377,MÉDIO
JARAGUÁ,2026-06-20,0.0,3,6,5,1,0.0027460153611464,-15.684175632573451,-49.36723779617128,2.119047619047619,0.5787200352546849,0.75,MÉDIO
MARA ROSA,2026-06-20,0.0,3,6,5,1,0.0037022105460575,-13.999770100704,-49.390664925569126,2.625,0.5775026913586938,0.7459016393442623,MÉDIO
GOIANÉSIA,2026-06-20,0.0,3,6,5,1,0.0033721570729647,-15.235935983775684,-49.19339896780853,2.430379746835443,0.5753861243223258,0.7418032786885246,MÉDIO
ABADIÂNIA,2026-06-20,0.0,4,6,5,1,0.0021287341452501,-16.19915712906121,-48.70814271576387,2.414634146341464,0.5694521668443722,0.7377049180327869,MÉDIO
SÃO LUIZ DO NORTE,2026-06-20,0.0,4,6,5,1,0.0024484503731007,-14.905980936295272,-49.283790673643686,3.3375,0.5596267796769239,0.7336065573770492,MÉDIO
IACIARA,2026-06-20,0.0,3,6,5,1,0.0029911557483205,-14.108153980696324,-46.79592329445353,7.594202898550725,0.5572519845629762,0.7295081967213115,MÉDIO
APARECIDA DE GOIÂNIA,2026-06-20,0.0,4,6,5,1,0.0013357197602349,-16.80602601231046,-49.24588428522596,1.7731958762886595,0.5442432405045838,0.7254098360655737,MÉDIO
CABECEIRAS,2026-06-20,0.0,3,6,5,1,0.0021161817760273,-15.753711869204832,-46.99550025639795,4.791666666666667,0.5441151391521087,0.7213114754098361,MÉDIO
SANTO ANTÔNIO DO DESCOBERTO,2026-06-20,0.0,3,6,5,1,0.002381996653686,-16.02598615253068,-48.28800335138823,2.3076923076923075,0.5398175791491198,0.7172131147540983,MÉDIO
PIRES DO RIO,2026-06-20,0.0,5,6,5,1,0.0018075411680791,-17.230327492515848,-48.40629032850881,3.636363636363636,0.5356976529863724,0.7131147540983607,MÉDIO
ITAPACI,2026-06-20,0.0,3,6,5,1,0.0027290327439626,-14.955491253186096,-49.62493326485581,2.6666666666666665,0.5345604973469089,0.7090163934426229,MÉDIO
MONTES CLAROS DE GOIÁS,2026-06-20,0.4,0,6,5,1,0.0036261579560608,-15.873326931416043,-51.59664771775818,4.019230769230769,0.5312048208856467,0.7049180327868853,MÉDIO
BONÓPOLIS,2026-06-20,0.0,2,6,5,1,0.0027253408706618,-13.56457655433514,-49.78488929257367,3.725,0.5290454331417989,0.7008196721311475,MÉDIO
SANTA ISABEL,2026-06-20,0.0,3,6,5,1,0.0024432817504795,-15.200546008094864,-49.40043024932847,6.6415094339622645,0.528681700641747,0.6967213114754098,BAIXO
AMARALINA,2026-06-20,0.0,4,6,5,1,0.0035235238782981,-13.848529827205882,-49.56903226128027,2.5098039215686274,0.5117581466600101,0.6926229508196722,BAIXO
NOVA GLÓRIA,2026-06-20,0.0,4,6,5,1,0.0023332639261152,-15.080904022970325,-49.5127373729181,2.68,0.5110898826698352,0.6885245901639344,BAIXO
PALMEIRAS DE GOIÁS,2026-06-20,0.0,4,6,5,1,0.0026522417793057,-16.814514481269185,-49.9450199537401,2.2916666666666665,0.5103724180208554,0.6844262295081968,BAIXO
ÁGUAS LINDAS DE GOIÁS,2026-06-20,0.0,4,6,5,1,0.0010477536427713,-15.740323677414423,-48.27077651213715,1.6349206349206349,0.5080540559611815,0.680327868852459,BAIXO
MUNDO NOVO,2026-06-20,0.0,4,6,5,1,0.0027504456091074,-13.777534650060309,-50.25180240334917,2.9692307692307693,0.5075375927655371,0.6762295081967213,BAIXO
CAMPINORTE,2026-06-20,0.0,4,6,5,1,0.0043180150126335,-14.019192669554034,-48.931304030265736,2.239130434782609,0.5061020719681278,0.6721311475409836,BAIXO
MUTUNÓPOLIS,2026-06-20,0.0,2,6,5,1,0.0021346411425314,-13.711606278817616,-49.31418113591433,5.033898305084746,0.49720376666311106,0.6680327868852459,BAIXO
SANTA RITA DO NOVO DESTINO,2026-06-20,0.0,3,6,5,1,0.0025961253051333,-14.819117187607606,-49.03969360530454,4.5588235294117645,0.49537498506040417,0.6639344262295082,BAIXO
GOIATUBA,2026-06-20,0.2,0,6,5,1,0.0047403653182468,-17.991078799174332,-49.72506729400575,2.75,0.4889148943359014,0.6598360655737705,BAIXO
ITAPURANGA,2026-06-20,0.0,3,6,5,1,0.0018466750250678,-15.577224810549591,-49.933817512866845,2.2222222222222223,0.4854141706858654,0.6557377049180327,BAIXO
BELA VISTA DE GOIÁS,2026-06-20,0.0,6,6,5,1,0.002201094861946,-16.95106540676648,-48.933601465935,1.6,0.48159450195315456,0.6516393442622951,BAIXO
CORUMBAÍBA,2026-06-20,0.0,4,6,5,1,0.0016332847482806,-18.048104715395148,-48.4749049622824,2.3191489361702127,0.4801978859198593,0.6475409836065574,BAIXO
ITARUMÃ,2026-06-20,0.7,0,6,5,1,0.0046421614884451,-18.86462245523424,-51.33580667861621,4.627118644067797,0.47303516315955385,0.6434426229508197,BAIXO
INHUMAS,2026-06-20,0.0,6,6,5,1,0.0011282364807291,-16.318242778189063,-49.50186836687853,1.9130434782608696,0.4726935967685988,0.639344262295082,BAIXO
SANTA TEREZINHA DE GOIÁS,2026-06-20,0.0,3,6,5,1,0.0023960257722291,-14.32429478078316,-49.65930833489798,4.050847457627119,0.4713599574024233,0.6352459016393442,BAIXO
ALEXÂNIA,2026-06-20,0.0,4,6,5,1,0.0011895215775226,-16.07491682926853,-48.49287370127031,1.9056603773584904,0.4688023714748285,0.6311475409836066,BAIXO
ACREÚNA,2026-06-20,0.4,0,6,5,1,0.0050453140528942,-17.48826970830257,-50.32369400069289,3.42,0.46360545798653413,0.6270491803278688,BAIXO
CORUMBÁ DE GOIÁS,2026-06-20,0.0,3,6,5,1,0.0013837141131455,-15.898613517797502,-48.71659334472278,2.606060606060606,0.4597872803784422,0.6229508196721312,BAIXO
SANTA CRUZ DE GOIÁS,2026-06-20,0.0,5,6,5,1,0.0013851908624659,-17.372324572144244,-48.58985156059331,2.351351351351352,0.4460228975380907,0.6188524590163934,BAIXO
BALIZA,2026-06-20,0.1,0,6,5,1,0.0094534107740676,-16.335498056525363,-52.47044379945877,2.369565217391304,0.4392377340233014,0.6147540983606558,BAIXO
NOVO PLANALTO,2026-06-20,0.0,2,6,5,1,0.0015786450234286,-13.224864863175409,-49.711211164352655,4.092307692307692,0.438227173076368,0.610655737704918,BAIXO
FAINA,2026-06-20,0.0,3,6,5,1,0.0040012522834236,-15.450502453569465,-50.35323063719383,2.484848484848485,0.4359989266017806,0.6065573770491803,BAIXO
BOM JESUS DE GOIÁS,2026-06-20,0.3,0,6,5,1,0.0043556721203019,-18.192311694542585,-49.92073113922121,2.872727272727273,0.4346992784997588,0.6024590163934426,BAIXO
EDÉIA,2026-06-20,0.7,0,6,5,1,0.0040093744046854,-17.509361464280108,-50.00172531667008,2.9791666666666665,0.4344304230911255,0.5983606557377049,BAIXO
TERESINA DE GOIÁS,2026-06-20,0.0,3,6,5,1,0.0045387890360223,-13.661127323864664,-47.23879651180497,3.9615384615384617,0.4334881573151876,0.5942622950819673,BAIXO
SANTA TEREZA DE GOIÁS,2026-06-20,0.0,2,6,5,1,0.0022261996003916,-13.615351655700474,-48.99769110324295,3.5405405405405403,0.4257710462809722,0.5901639344262295,BAIXO
GUARANI DE GOIÁS,2026-06-20,0.0,4,6,5,1,0.0039702405476967,-13.896234842419478,-46.35992556272503,3.25,0.4187373634305271,0.5860655737704918,BAIXO
URUTAÍ,2026-06-20,0.0,5,6,5,1,0.001073596755877,-17.44233047699522,-48.19865040570893,2.357142857142857,0.4176556718230334,0.5819672131147541,BAIXO
CIDADE OCIDENTAL,2026-06-20,0.0,4,6,5,1,0.0009805615486965,-16.103552382328953,-47.86022791897977,1.9230769230769231,0.4151845737842175,0.5778688524590164,BAIXO
PORTEIRÃO,2026-06-20,0.8,0,6,5,1,0.002961620761914,-17.91222565304729,-50.164965023771295,3.433333333333333,0.4138458340964354,0.5737704918032787,BAIXO
NOVO GAMA,2026-06-20,0.0,4,6,5,1,0.0008040900049175,-16.10973108267564,-48.07263803458282,1.9787234042553192,0.413470590464278,0.569672131147541,BAIXO
TURVELÂNDIA,2026-06-20,0.3,0,6,5,1,0.0033884013154882,-17.8061094010701,-50.31150433875028,2.41025641025641,0.4122931655453875,0.5655737704918032,BAIXO
MOZARLÂNDIA,2026-06-20,0.0,3,6,5,1,0.0020120709489443,-14.81638418252236,-50.609316979892746,2.8541666666666665,0.4112081678760914,0.5614754098360656,BAIXO
GUAPÓ,2026-06-20,0.0,6,6,5,1,0.0013896211104268,-16.923914459668058,-49.58948320140861,2.5,0.40627785384530846,0.5573770491803278,BAIXO
TROMBAS,2026-06-20,0.0,3,6,5,1,0.0034592852828639,-13.45565441683509,-48.69444724203579,1.818181818181818,0.40092825518143754,0.5532786885245902,BAIXO
FORMOSO,2026-06-20,0.0,3,6,5,1,0.0027740735982326,-13.7157591183698,-48.828383563721786,1.8333333333333333,0.39959947279558633,0.5491803278688525,BAIXO
QUIRINÓPOLIS,2026-06-20,0.9,0,6,5,1,0.0039104322002235,-18.344498864270253,-50.57761418506451,3.3095238095238093,0.39749216111148933,0.5450819672131147,BAIXO
VALPARAÍSO DE GOIÁS,2026-06-20,0.0,4,6,5,1,0.0004061060630896,-16.08965315501241,-47.98624179015667,2.023809523809524,0.3969792188894296,0.5409836065573771,BAIXO
CAMPOS BELOS,2026-06-20,0.0,3,6,5,1,0.0053953036418114,-12.986995843211018,-46.42094914457776,2.765957446808511,0.39619807302126814,0.5368852459016393,BAIXO
SANTA HELENA DE GOIÁS,2026-06-20,1.6,0,6,5,1,0.0065552902329276,-17.809635495091406,-50.550434417318826,5.549295774647887,0.39599208120227086,0.5327868852459017,BAIXO
MOSSÂMEDES,2026-06-20,0.0,6,6,5,1,0.002096984034863,-16.138102134284225,-50.1950255261411,1.875,0.3902698151600289,0.5286885245901639,BAIXO
GOIANÁPOLIS,2026-06-20,0.0,4,6,5,1,0.0013534407520788,-16.52798048733482,-49.09369703759325,1.7692307692307692,0.3872305535328781,0.5245901639344263,BAIXO
ARENÓPOLIS,2026-06-20,0.0,3,6,5,1,0.0016960465943945,-16.361902054815086,-51.55715988814804,2.2413793103448274,0.3867356218127768,0.5204918032786885,BAIXO
NOVA IGUAÇU DE GOIÁS,2026-06-20,0.0,3,6,5,1,0.0017403490740043,-14.335840325249317,-49.31212409374217,2.3043478260869565,0.3852715449479371,0.5163934426229508,BAIXO
APORÉ,2026-06-20,0.8,0,6,5,1,0.0023280953034941,-18.7073526543005,-52.08304620766298,4.466666666666667,0.3840849531119151,0.5122950819672131,BAIXO
UIRAPURU,2026-06-20,0.0,4,6,5,1,0.0023568919152404,-14.1658704952681,-49.9660646641288,1.8823529411764703,0.381518057952917,0.5081967213114754,BAIXO
RUBIATABA,2026-06-20,0.0,3,6,5,1,0.0012448996770349,-15.197347826385103,-49.85541149603293,2.3846153846153846,0.3799111174862924,0.5040983606557377,BAIXO
MATRINCHÃ,2026-06-20,0.0,4,6,5,1,0.0013534407520788,-15.332925918372275,-50.75330754036656,3.5454545454545454,0.3770053450726966,0.5,BAIXO
SANTA FÉ DE GOIÁS,2026-06-20,0.0,3,6,5,1,0.0017765294323523,-15.695835336846852,-51.16880663261477,4.266666666666667,0.37588368899869523,0.4959016393442623,BAIXO
TRINDADE,2026-06-20,0.1,0,6,5,1,0.0016598662360465,-16.650075769653657,-49.51836291274552,1.6708860759493671,0.3716906457964148,0.4918032786885246,BAIXO
BRITÂNIA,2026-06-20,0.0,3,6,5,1,0.0024949679766909,-15.098256086081884,-51.20240394542521,1.631578947368421,0.3701885733779593,0.48770491803278687,BAIXO
RIALMA,2026-06-20,0.0,3,6,5,1,0.0012478531756755,-15.319958184167618,-49.53010326892392,1.5483870967741935,0.36731751636298643,0.48360655737704916,BAIXO
VIANÓPOLIS,2026-06-20,0.0,4,6,5,1,0.0007620026492882,-16.848283967930477,-48.46851922795139,2.1052631578947367,0.366457239205914,0.47950819672131145,BAIXO
INDIARA,2026-06-20,0.2,0,6,5,1,0.0023591070392209,-17.22357364537349,-49.96111627583188,2.575,0.3663603851578932,0.47540983606557374,BAIXO
MAMBAÍ,2026-06-20,0.0,3,6,5,1,0.005212186726091,-14.387997990140692,-46.051088000383096,5.1923076923076925,0.3614960788745148,0.4713114754098361,BAIXO
DIVINÓPOLIS DE GOIÁS,2026-06-20,0.0,2,6,5,1,0.001997303455741,-13.286303429360114,-46.52383420100133,3.909090909090909,0.3608276116999867,0.4672131147540984,BAIXO
FAZENDA NOVA,2026-06-20,0.1,0,6,5,1,0.0038077981224609,-16.080235263157753,-50.93137671149489,2.647058823529412,0.35303013018103424,0.46311475409836067,BAIXO
LEOPOLDO DE BULHÕES,2026-06-20,0.0,4,6,5,1,0.0009037705840395,-16.556636131106096,-48.89337232999825,1.9428571428571428,0.35214845507283415,0.45901639344262296,BAIXO
CAÇU,2026-06-20,0.3,0,6,5,1,0.0017366572007035,-18.69115169498673,-51.169522816602274,4.6,0.35049924686458084,0.45491803278688525,BAIXO
PALESTINA DE GOIÁS,2026-06-20,0.1,0,6,5,1,0.0016318079989603,-16.713753711842983,-51.42754199497641,2.933333333333333,0.3483750081589537,0.45081967213114754,BAIXO
JANDAIA,2026-06-20,0.0,4,6,5,1,0.0011570330924755,-17.140823818775164,-50.18439081477384,3.55,0.3409692541529344,0.44672131147540983,BAIXO
PETROLINA DE GOIÁS,2026-06-20,0.0,4,6,5,1,0.0007716015198704,-16.11674724559263,-49.318512368591655,3.56,0.33908004025203914,0.4426229508196721,BAIXO
ITAJÁ,2026-06-20,0.7,0,6,5,1,0.0019995185797215,-19.086946202574843,-51.34562507108249,2.5384615384615383,0.32995128657125256,0.4385245901639344,BAIXO
SIMOLÂNDIA,2026-06-20,0.0,3,6,5,1,0.0011799227069405,-14.434586326028946,-46.58882654789143,2.5789473684210527,0.3267790294713062,0.4344262295081967,BAIXO
SÃO FRANCISCO DE GOIÁS,2026-06-20,0.0,3,6,5,1,0.000774555018511,-15.930856959393246,-49.25922517675899,2.2580645161290325,0.3231201881763511,0.430327868852459,BAIXO
PILAR DE GOIÁS,2026-06-20,0.0,3,6,5,1,0.0022653334573802,-14.563053642806697,-49.51029317946296,1.4210526315789471,0.3223716120805767,0.4262295081967213,BAIXO
URUANA,2026-06-20,0.0,3,6,5,1,0.0009901604192786,-15.537768557761284,-49.65225244233562,2.5294117647058822,0.32158455736608166,0.42213114754098363,BAIXO
ITAPIRAPUÃ,2026-06-20,0.1,0,6,5,1,0.0013726384932431,-15.75718984044679,-50.7465760866374,2.4242424242424243,0.32109820554473295,0.4180327868852459,BAIXO
CHAPADÃO DO CÉU,2026-06-20,0.6,0,6,5,1,0.0062939056032299,-18.41837474627293,-52.650980123044505,15.272727272727272,0.32101666505805165,0.4139344262295082,BAIXO
GUARINOS,2026-06-20,0.0,3,6,5,1,0.0012316089331519,-14.677563689499642,-49.737239130745,2.75,0.31691349510740974,0.4098360655737705,BAIXO
TEREZÓPOLIS DE GOIÁS,2026-06-20,0.0,6,6,5,1,0.0007612642746281,-16.451781768427683,-49.07980840150495,2.125,0.3151266479738874,0.4057377049180328,BAIXO
CAMPOS VERDES,2026-06-20,0.0,3,6,5,1,0.0009022938347192,-14.200869051269477,-49.67078102066461,3.28,0.31236531998603656,0.4016393442622951,BAIXO
GAMELEIRA DE GOIÁS,2026-06-20,0.0,4,6,5,1,0.0005648566150247,-16.393084698423134,-48.71174726623623,2.0303030303030303,0.31199300139847586,0.3975409836065574,BAIXO
DIORAMA,2026-06-20,0.1,0,6,5,1,0.0011001782436429,-16.22661972062711,-51.389931230721885,4.384615384615385,0.30432344456803606,0.39344262295081966,BAIXO
HIDROLINA,2026-06-20,0.0,3,6,5,1,0.0009628405568526,-14.78351237067298,-49.29993852784245,2.740740740740741,0.3038135739888609,0.38934426229508196,BAIXO
VICENTINÓPOLIS,2026-06-20,0.8,0,6,5,1,0.0018865472567166,-17.717102371829977,-49.92046965643163,4.85,0.29931875942415437,0.38524590163934425,BAIXO
NERÓPOLIS,2026-06-20,0.0,6,6,5,1,0.0010041895378217,-16.425056587028248,-49.17034091583095,1.8571428571428568,0.2983818563089171,0.38114754098360654,BAIXO
PROFESSOR JAMIL,2026-06-20,0.0,6,6,5,1,0.0010381547721892,-17.327766046172016,-49.24779400353557,2.333333333333333,0.2961000679069026,0.3770491803278688,BAIXO
MAURILÂNDIA,2026-06-20,0.8,0,6,5,1,0.0023303104274746,-18.03750092993941,-50.36063856125698,4.36,0.29220602539715024,0.3729508196721312,BAIXO
MONTIVIDIU,2026-06-20,0.1,0,6,5,1,0.0017492095699262,-17.302834146829042,-51.19610715003383,1.625,0.28739145234062485,0.36885245901639346,BAIXO
IPORÁ,2026-06-20,0.2,0,6,5,1,0.0012958475285861,-16.39958999360689,-51.174760035598624,1.6444444444444444,0.2830447686247049,0.36475409836065575,BAIXO
IVOLÂNDIA,2026-06-20,0.8,0,6,5,1,0.0014804411936269,-16.679987246814406,-50.98325370232422,3.4878048780487805,0.28299524451273733,0.36065573770491804,BAIXO
ARAGARÇAS,2026-06-20,0.2,0,6,5,1,0.0016207323790579,-15.9954744133776,-52.195114826594455,1.809523809523809,0.2800942246387583,0.35655737704918034,BAIXO
ESTRELA DO NORTE,2026-06-20,0.0,2,6,5,1,0.0006290952104589,-13.815008598965576,-49.04348551590312,3.269230769230769,0.27991557283647045,0.3524590163934426,BAIXO
CACHOEIRA ALTA,2026-06-20,0.5,0,6,5,1,0.0012825567847032,-18.461936889018936,-50.98679602687277,3.4827586206896552,0.2780738564322863,0.3483606557377049,BAIXO
ALTO HORIZONTE,2026-06-20,0.0,3,6,5,1,0.0009111543306412,-14.162393972965113,-49.45279801107309,2.4705882352941178,0.27648733268675096,0.3442622950819672,BAIXO
JAUPACI,2026-06-20,0.2,0,6,5,1,0.0010263407776266,-16.20973022325548,-51.05550430467066,4.142857142857143,0.27520033210235545,0.3401639344262295,BAIXO
PEROLÂNDIA,2026-06-20,0.8,0,6,5,1,0.0024462352491202,-17.53130275403183,-52.205615580294655,2.4074074074074074,0.2739297166818585,0.3360655737704918,BAIXO
CARMO DO RIO VERDE,2026-06-20,0.0,3,6,5,1,0.0007354211615224,-15.426910428711976,-49.742093983937615,2.5217391304347827,0.27342128776871977,0.3319672131147541,BAIXO
OUVIDOR,2026-06-20,0.0,4,6,5,1,0.0006859500592914,-18.22269684670895,-47.73785347238525,1.36,0.2713742178481935,0.32786885245901637,BAIXO
GOIANDIRA,2026-06-20,0.0,6,6,5,1,0.0006940721805532,-18.109377022796597,-48.1276924891904,1.5555555555555556,0.2650926014831949,0.3237704918032787,BAIXO
GOIANIRA,2026-06-20,0.0,4,6,5,1,0.0006224498385174,-16.508575399186565,-49.41469315151372,1.4594594594594594,0.2614392904342101,0.319672131147541,BAIXO
DAVINÓPOLIS,2026-06-20,0.0,4,6,5,1,0.0007597875253077,-18.113605118464037,-47.53297332981958,2.357142857142857,0.2581237890283732,0.3155737704918033,BAIXO
AURILÂNDIA,2026-06-20,0.1,0,6,5,1,0.00081516562482,-16.694217641941965,-50.54701395836094,3.333333333333333,0.2543845660048513,0.3114754098360656,BAIXO
PANAMÁ,2026-06-20,0.3,0,6,5,1,0.0011511260951942,-18.199317807602675,-49.40058551258638,2.875,0.2541625904349922,0.3073770491803279,BAIXO
ABADIA DE GOIÁS,2026-06-20,0.0,4,6,5,1,0.0004105363110506,-16.78893560640398,-49.43279950787229,1.7179487179487178,0.25368736660173813,0.30327868852459017,BAIXO
PONTALINA,2026-06-20,0.2,0,6,5,1,0.0014390922126578,-17.54112629308756,-49.56409835329973,1.3846153846153846,0.2527562462659045,0.29918032786885246,BAIXO
INACIOLÂNDIA,2026-06-20,0.2,0,6,5,1,0.0013017545258674,-18.422363375480977,-49.93462547993578,7.142857142857143,0.25187936687667606,0.29508196721311475,BAIXO
SANTA RITA DO ARAGUAIA,2026-06-20,1.3,0,6,5,1,0.0016871860984725,-17.30441364463477,-53.10068255768836,2.236842105263158,0.2502608781393041,0.29098360655737704,BAIXO
MAIRIPOTABA,2026-06-20,0.1,0,6,5,1,0.0006999791778345,-17.295161367113327,-49.44670063542476,3.347826086956522,0.24125890455910867,0.28688524590163933,BAIXO
SANTO ANTÔNIO DA BARRA,2026-06-20,0.7,0,6,5,1,0.0012611439195585,-17.55961474151254,-50.63551540775774,3.2962962962962963,0.2399371226867857,0.2827868852459016,BAIXO
CASTELÂNDIA,2026-06-20,0.7,0,6,5,1,0.0014516445818805,-18.147960130853747,-50.30679359237395,2.7222222222222223,0.22289290661914304,0.2786885245901639,BAIXO
TURVÂNIA,2026-06-20,0.0,4,6,5,1,0.0005109552648328,-16.5749332857626,-50.13386843949185,2.9166666666666665,0.222732304503359,0.27459016393442626,BAIXO
APARECIDA DO RIO DOCE,2026-06-20,0.0,4,6,5,1,0.0009613638075323,-18.2275046528764,-51.298408339959074,1.3571428571428572,0.21934443082887015,0.27049180327868855,BAIXO
SÃO LUÍS DE MONTES BELOS,2026-06-20,0.0,4,6,5,1,0.0005833159815288,-16.469151982594024,-50.3923408472066,2.25,0.21871752397444294,0.26639344262295084,BAIXO
RIO QUENTE,2026-06-20,0.0,4,6,5,1,0.0006002985987125,-17.794891918495523,-48.787827332868765,1.8571428571428568,0.2170610740510871,0.26229508196721313,BAIXO
ITAUÇU,2026-06-20,0.0,4,6,5,1,0.0005353216286182,-16.19395275886309,-49.59347382261099,1.8,0.2155004757069277,0.2581967213114754,BAIXO
CERES,2026-06-20,0.0,4,6,5,1,0.0003994606911482,-15.280732075215544,-49.628100932957885,2.357142857142857,0.21518632432681037,0.2540983606557377,BAIXO
CATURAÍ,2026-06-20,0.0,6,6,5,1,0.0004157049336718,-16.46434919145576,-49.55619428460128,2.125,0.21117241950029775,0.25,BAIXO
IPIRANGA DE GOIÁS,2026-06-20,0.1,0,6,5,1,0.0008085202528785,-15.155239440421736,-49.6667347648474,1.8928571428571428,0.20920644619497272,0.2459016393442623,BAIXO
HEITORAÍ,2026-06-20,0.0,3,6,5,1,0.0004681295345433,-15.737018243255712,-49.79072401383959,1.8,0.20851440953565706,0.24180327868852458,BAIXO
CRISTIANÓPOLIS,2026-06-20,0.0,5,6,5,1,0.0005449204992003,-17.206932724384384,-48.69296888350953,1.4615384615384617,0.20386214118350632,0.23770491803278687,BAIXO
CROMÍNIA,2026-06-20,0.0,4,6,5,1,0.0004969261462897,-17.253757641416556,-49.343018999846976,1.933333333333333,0.20219821043981762,0.2336065573770492,BAIXO
ARAGOIÂNIA,2026-06-20,0.0,6,6,5,1,0.0003322685970733,-16.91901903566752,-49.41650422930775,1.4666666666666666,0.20162979340972995,0.22950819672131148,BAIXO
VARJÃO,2026-06-20,0.0,1,6,5,1,0.0008159039994801,-17.057239672517852,-49.63849902778105,1.9166666666666667,0.19926427339017078,0.22540983606557377,BAIXO
MARZAGÃO,2026-06-20,0.0,4,6,5,1,0.0003824780739644,-17.955558865377707,-48.675183437794566,2.111111111111111,0.19911536379079542,0.22131147540983606,BAIXO
CACHOEIRA DE GOIÁS,2026-06-20,0.2,0,6,5,1,0.0008033516302574,-16.743051878299504,-50.687902715799886,1.9047619047619049,0.19358829699767377,0.21721311475409835,BAIXO
BONFINÓPOLIS,2026-06-20,0.0,4,6,5,1,0.0004171816829921,-16.593720196431793,-49.00153550440518,1.375,0.19130289385387797,0.21311475409836064,BAIXO
CACHOEIRA DOURADA,2026-06-20,0.4,0,6,5,1,0.0009392125677274,-18.46651639403071,-49.55177475564167,2.5,0.1879223883508853,0.20901639344262296,BAIXO
BURITINÓPOLIS,2026-06-20,0.0,4,6,5,1,0.0005914381027906,-14.42314966215634,-46.33303829144667,1.6,0.18592941611956848,0.20491803278688525,BAIXO
SÃO MIGUEL DO PASSA QUATRO,2026-06-20,0.0,4,6,5,1,0.0004127514350311,-17.005010859807335,-48.6779096365864,1.181818181818182,0.1778209665755824,0.20081967213114754,BAIXO
CUMARI,2026-06-20,0.0,4,6,5,1,0.0004880656503677,-18.301979326576244,-48.12847505289865,1.2941176470588236,0.17554614327305046,0.19672131147540983,BAIXO
PORTELÂNDIA,2026-06-20,2.2,0,6,5,1,0.001209457693347,-17.363742774222114,-52.70044038012558,2.230769230769231,0.17071802627324348,0.19262295081967212,BAIXO
AMORINÓPOLIS,2026-06-20,0.2,0,6,5,1,0.0004725597825043,-16.66506804069733,-51.10984947764403,2.1875,0.17030993893588744,0.1885245901639344,BAIXO
DAMIANÓPOLIS,2026-06-20,0.0,3,6,5,1,0.0008934333387973,-14.591784557452115,-46.16138493743546,1.1428571428571428,0.16887837417287657,0.18442622950819673,BAIXO
EDEALINA,2026-06-20,0.4,0,6,5,1,0.0006482929516231,-17.41358594607326,-49.76627082483966,1.75,0.163195285373045,0.18032786885245902,BAIXO
CAMPO LIMPO DE GOIÁS,2026-06-20,0.0,4,6,5,1,0.0002665532523188,-16.299018349281013,-49.110030575894335,1.5625,0.16204333368232957,0.1762295081967213,BAIXO
MOIPORÁ,2026-06-20,0.2,0,6,5,1,0.0005818392322084,-16.48291057823502,-50.79468243580173,2.4615384615384617,0.15981307006524453,0.1721311475409836,BAIXO
BURITI ALEGRE,2026-06-20,0.0,4,6,5,1,0.0005065250168718,-18.058745550168023,-49.05309547296925,1.1666666666666667,0.15762764736239407,0.1680327868852459,BAIXO
NOVA VENEZA,2026-06-20,0.0,4,6,5,1,0.0002525241337757,-16.37386734685885,-49.29800513158261,1.6,0.15361134789113648,0.16393442622950818,BAIXO
SANTO ANTÔNIO DE GOIÁS,2026-06-20,0.0,4,6,5,1,0.0003182394785302,-16.459177028614274,-49.28880054422419,1.625,0.15180715511910858,0.1598360655737705,BAIXO
FIRMINÓPOLIS,2026-06-20,0.0,4,6,5,1,0.0003101173572684,-16.632875809432132,-50.31542780810252,2.2,0.14765742280857239,0.1557377049180328,BAIXO
TRÊS RANCHOS,2026-06-20,0.0,4,6,5,1,0.0001469365573724,-18.316873966288444,-47.74838358478794,2.3125,0.1468024248367787,0.15163934426229508,BAIXO
PALMINÓPOLIS,2026-06-20,0.0,4,6,5,1,0.0003160243545497,-16.802402853215252,-50.18205094632173,2.142857142857143,0.14564463686079723,0.14754098360655737,BAIXO
ITAGUARU,2026-06-20,0.0,4,6,5,1,0.000186070414361,-15.78281026598368,-49.60758994825582,5.555555555555555,0.14248977328108015,0.14344262295081966,BAIXO
SANCLERLÂNDIA,2026-06-20,0.0,4,6,5,1,0.0003374372196945,-16.31910344708521,-50.396968692158616,1.5,0.13851230949566154,0.13934426229508196,BAIXO
AVELINÓPOLIS,2026-06-20,0.3,0,6,5,1,0.0003972455671677,-16.51911947366258,-49.76146747111399,2.125,0.13816929800214578,0.13524590163934427,BAIXO
SÃO PATRÍCIO,2026-06-20,0.0,3,6,5,1,0.0001831169157204,-15.354159533666005,-49.800363421788425,4.5,0.13806566579758447,0.13114754098360656,BAIXO
MORRO AGUDO DE GOIÁS,2026-06-20,0.0,3,6,5,1,0.0002894428667839,-15.304498898497632,-49.98811127634744,2.6666666666666665,0.13415430759755956,0.12704918032786885,BAIXO
BRAZABRANTES,2026-06-20,0.0,6,6,5,1,0.0002414485138733,-16.38638492779754,-49.3872036236477,1.1428571428571428,0.13385136017449487,0.12295081967213115,BAIXO
NOVA AMÉRICA,2026-06-20,0.0,3,6,5,1,0.0003160243545497,-15.06192828329916,-49.9617065714417,2.5,0.13227787408128708,0.11885245901639344,BAIXO
CAMPESTRE DE GOIÁS,2026-06-20,0.0,6,6,5,1,0.0002392333898928,-16.796398326655236,-49.67954670252682,2.0,0.12534140107847053,0.11475409836065574,BAIXO
OURO VERDE DE GOIÁS,2026-06-20,0.0,4,6,5,1,0.0001971460342635,-16.27053798049984,-49.21511768318319,1.4,0.12518298695279023,0.11065573770491803,BAIXO
ITAGUARI,2026-06-20,0.0,3,6,5,1,0.0002813207455221,-15.958521857049124,-49.62738930061074,1.3333333333333333,0.12183649355550413,0.10655737704918032,BAIXO
CALDAZINHA,2026-06-20,0.0,5,6,5,1,0.00022668102067,-16.743499656574723,-48.98542839082745,1.25,0.1217030081276452,0.10245901639344263,BAIXO
NAZÁRIO,2026-06-20,0.1,0,6,5,1,0.000457792289301,-16.599868890591072,-49.81683600889826,1.3333333333333333,0.11820267799923848,0.09836065573770492,BAIXO
ISRAELÂNDIA,2026-06-20,0.4,0,6,5,1,0.0006217114638572,-16.357079235135966,-50.868874162608,2.0,0.11582045881152146,0.0942622950819672,BAIXO
LAGOA SANTA,2026-06-20,0.8,0,6,5,1,0.0002879661174635,-19.18411260260326,-51.28965509319911,1.75,0.11410421313579316,0.09016393442622951,BAIXO
SÃO JOÃO DA PARAÚNA,2026-06-20,0.4,0,6,5,1,0.0003381755943546,-16.83029448609981,-50.38551384054304,1.8571428571428568,0.11357341261277958,0.0860655737704918,BAIXO
SANTA ROSA DE GOIÁS,2026-06-20,0.0,3,6,5,1,8.934333387973059e-05,-16.05154736618163,-49.49362956819317,1.6666666666666667,0.11286109021322585,0.08196721311475409,BAIXO
JOVIÂNIA,2026-06-20,0.8,0,6,5,1,0.0003374372196945,-17.796625241812514,-49.645908107666806,1.8888888888888888,0.1093749923493844,0.0778688524590164,BAIXO
DAMOLÂNDIA,2026-06-20,0.0,4,6,5,1,4.504085426994682e-05,-16.248604825879593,-49.32391944079821,1.4285714285714286,0.10676168217003008,0.07377049180327869,BAIXO
ANHANGUERA,2026-06-20,0.0,4,6,5,1,8.122121261793689e-05,-18.298455841186364,-48.23644304764,9.0,0.10564915468417094,0.06967213114754098,BAIXO
PARANAIGUARA,2026-06-20,0.6,0,6,5,1,0.0004171816829921,-18.80418019132733,-50.7270395812168,17.666666666666668,0.0998702604068542,0.06557377049180328,BAIXO
SANTA BÁRBARA DE GOIÁS,2026-06-20,0.3,0,6,5,1,0.0001602273012553,-16.595488741575974,-49.68567213368231,2.0,0.09730946090964097,0.06147540983606557,BAIXO
RIANÁPOLIS,2026-06-20,0.0,3,6,5,1,0.0004452399200783,-15.471388795648876,-49.44433543377273,1.0,0.08273544504959467,0.05737704918032787,BAIXO
NOVA AURORA,2026-06-20,0.1,0,6,5,1,9.525033116103507e-05,-18.08032677087066,-48.312556451501656,1.5,0.07797555159731782,0.05327868852459016,BAIXO
NOVO BRASIL,2026-06-20,0.0,3,6,5,1,0.0004157049336718,-16.06446829111038,-50.5877548005677,1.0,0.07472384457396279,0.04918032786885246,BAIXO
BURITI DE GOIÁS,2026-06-20,0.0,4,6,5,1,0.0004459782947384,-16.117288760460852,-50.42866144294369,1.0,0.07382732184475609,0.045081967213114756,BAIXO
TAQUARAL DE GOIÁS,2026-06-20,0.0,3,6,5,1,0.0003042103599871,-16.03498818375823,-49.60400920317701,1.0,0.06960742055939738,0.040983606557377046,BAIXO
AMERICANO DO BRASIL,2026-06-20,0.0,4,6,5,1,0.0002850126188229,-16.26768690474456,-50.03356390050078,1.0,0.06894150750249602,0.036885245901639344,BAIXO
CÓRREGO DO OURO,2026-06-20,0.1,0,6,5,1,0.0003691873300815,-16.371262238930456,-50.57972804506588,1.0,0.06324079849975402,0.03278688524590164,BAIXO
PALMELO,2026-06-20,0.0,5,6,5,1,0.0001122329483447,-17.29286227354363,-48.39789764949551,1.0,0.06047266178498555,0.028688524590163935,BAIXO
ARAÇU,2026-06-20,0.0,5,6,5,1,0.0001417679347513,-16.334093281250002,-49.70501984375,1.0,0.06030173671520801,0.02459016393442623,BAIXO
ADELÂNDIA,2026-06-20,0.0,4,6,5,1,0.0001786866677594,-16.353762350998142,-50.17813605937417,1.0,0.06021806732323934,0.020491803278688523,BAIXO
JESÚPOLIS,2026-06-20,0.0,3,6,5,1,9.67270804813612e-05,-15.96442854961832,-49.40223259541985,1.0,0.05531167441200362,0.01639344262295082,BAIXO
GUARAÍTA,2026-06-20,0.0,3,6,5,1,0.0001203550696065,-15.655710917941402,-50.06909189298791,1.0,0.055249169092084834,0.012295081967213115,BAIXO
ÁGUA LIMPA,2026-06-20,0.0,4,6,5,1,2.215123980489188e-05,-17.931234278399998,-48.799315130206665,0.0,0.010598930685195459,0.00819672131147541,BAIXO
ALOÂNDIA,2026-06-20,0.2,0,6,5,1,6.276184611386032e-05,-17.68815894117647,-49.45926305882353,0.0,0.009952503337656763,0.004098360655737705,BAIXO
NIQUELÂNDIA,2026-06-21,0.0,4,6,6,1,0.0702666861597576,-14.555710756178348,-48.323001755813664,16.54513888888889,0.9557286805809294,1.0,ALTO
CAVALCANTE,2026-06-21,0.0,4,6,6,1,0.0610547238995633,-13.605372533203356,-47.74998846789225,13.759398496240602,0.9273482865667629,0.9959016393442623,ALTO
FORMOSA,2026-06-21,0.0,4,6,6,1,0.0326974450760009,-15.366385635807053,-47.255312528185605,4.150837988826815,0.8533421116575571,0.9918032786885246,ALTO
CRISTALINA,2026-06-21,0.0,5,6,6,1,0.0132176447915789,-16.729108968671913,-47.51949739378938,4.318181818181818,0.8521924288366982,0.9877049180327869,ALTO
BARRO ALTO,2026-06-21,0.0,4,6,6,1,0.0070197278941702,-14.9246949793272,-48.89831318663708,2.274193548387097,0.8392630438234978,0.9836065573770492,ALTO
MINEIROS,2026-06-21,0.1,0,6,6,1,0.0275280840801993,-17.758011413392754,-52.819223041509886,9.509174311926603,0.8285791450842782,0.9795081967213115,ALTO
PORANGATU,2026-06-21,0.0,3,6,6,1,0.0130825222287691,-13.295151272205969,-49.25062116604489,8.9,0.813641231925526,0.9754098360655737,ALTO
IPAMERI,2026-06-21,0.0,6,6,6,1,0.0082203250915953,-17.453901960073118,-47.994679662267664,5.139896373056994,0.8130496472637972,0.9713114754098361,ALTO
LUZIÂNIA,2026-06-21,0.0,5,6,6,1,0.0070248965167913,-16.41158591502055,-47.9402484582945,3.549504950495049,0.8040217501518993,0.9672131147540983,ALTO
PLANALTINA,2026-06-21,0.0,4,6,6,1,0.0220286696113048,-15.297339114149969,-47.82804373552916,6.205128205128205,0.800188771498377,0.9631147540983607,ALTO
SÃO JOÃO D'ALIANÇA,2026-06-21,0.0,4,6,6,1,0.0174500083436336,-14.47092130372994,-47.44566869827519,4.917582417582418,0.7773511675686599,0.9590163934426229,ALTO
CAIAPÔNIA,2026-06-21,0.7,0,6,6,1,0.0142749973049324,-17.02333953529842,-51.80903000805655,7.114832535885167,0.7676091874862586,0.9549180327868853,ALTO
NOVA CRIXÁS,2026-06-21,0.1,0,6,6,1,0.0140461011602819,-14.109081491545986,-50.60644025233707,11.0,0.7657448520047966,0.9508196721311475,ALTO
FLORES DE GOIÁS,2026-06-21,0.0,4,6,6,1,0.0204832514475835,-14.69582900883936,-46.88334718801356,4.961538461538462,0.7576170848191909,0.9467213114754098,ALTO
RIO VERDE,2026-06-21,0.1,0,6,6,1,0.020077883759154,-17.80973337888139,-51.01793797116709,5.575418994413408,0.7354284211584631,0.9426229508196722,ALTO
MONTE ALEGRE DE GOIÁS,2026-06-21,0.0,5,6,6,1,0.0256814090551314,-13.350813143278856,-46.98514054795142,5.746268656716418,0.7340979066585426,0.9385245901639344,ALTO
JATAÍ,2026-06-21,0.2,0,6,6,1,0.0181485107721479,-17.885693026802887,-51.7369228480587,4.259668508287293,0.7296635311804798,0.9344262295081968,ALTO
PADRE BERNARDO,2026-06-21,0.0,4,6,6,1,0.0171465363583066,-15.387542873502616,-48.24234321428453,3.821138211382114,0.7255740813310251,0.930327868852459,ALTO
SÃO MIGUEL DO ARAGUAIA,2026-06-21,0.0,3,6,6,1,0.0108009445288652,-13.03457954651454,-50.31087167757311,5.801418439716312,0.7076184950541183,0.9262295081967213,ALTO
ALTO PARAÍSO DE GOIÁS,2026-06-21,0.0,4,6,6,1,0.0136045531135044,-14.194794675020932,-47.58800995260268,5.992063492063492,0.6990862018123499,0.9221311475409836,ALTO
SÃO DOMINGOS,2026-06-21,0.0,5,6,6,1,0.0184815177438814,-13.484742034647564,-46.3952483067699,5.164179104477612,0.6896393679731909,0.9180327868852459,ALTO
MINAÇU,2026-06-21,0.0,4,6,6,1,0.0177172999706126,-13.517945024690189,-48.337109129169214,5.321428571428571,0.6800041178388598,0.9139344262295082,ALTO
CRIXÁS,2026-06-21,0.0,4,6,6,1,0.0142565379384284,-14.80659158075239,-50.06889904182484,3.504,0.6764399142172758,0.9098360655737705,ALTO
URUAÇU,2026-06-21,0.0,5,6,6,1,0.0084898318425548,-14.424659723475168,-49.081429732121045,2.8306451612903225,0.6712703027429111,0.9057377049180327,ALTO
NOVA ROMA,2026-06-21,0.0,4,6,6,1,0.0121329724157994,-13.714942640576536,-47.01834764226104,5.73015873015873,0.6626155509995048,0.9016393442622951,ALTO
SERRANÓPOLIS,2026-06-21,0.0,1,6,6,1,0.0084580817321678,-18.245444254046,-52.13858145093347,3.9432624113475176,0.6548702506688315,0.8975409836065574,MÉDIO
PARAÚNA,2026-06-21,0.2,0,6,6,1,0.0093854803053326,-17.025229406670206,-50.64132283176662,7.314814814814815,0.6499670478999061,0.8934426229508197,MÉDIO
ITUMBIARA,2026-06-21,0.0,1,6,6,1,0.0076968174575397,-18.36303539838409,-49.51316782799183,5.170940170940171,0.6498495147275604,0.889344262295082,MÉDIO
ÁGUA FRIA DE GOIÁS,2026-06-21,0.0,4,6,6,1,0.0101031804750111,-14.959240097702764,-47.8720093319421,3.768421052631579,0.6423731248818662,0.8852459016393442,MÉDIO
JUSSARA,2026-06-21,0.2,0,6,6,1,0.0097384233928906,-15.53774041723269,-51.30291227238109,7.694117647058824,0.6281110749925961,0.8811475409836066,MÉDIO
MIMOSO DE GOIÁS,2026-06-21,0.0,4,6,6,1,0.0153441638128486,-15.0302729730905,-48.33825202036574,5.0,0.605994913614845,0.8770491803278688,MÉDIO
VILA BOA,2026-06-21,0.0,7,6,6,1,0.0051088142736682,-14.984552679127855,-47.06563145675107,4.597402597402597,0.6054902081810735,0.8729508196721312,MÉDIO
CALDAS NOVAS,2026-06-21,0.0,5,6,6,1,0.0032953661083077,-17.728174181219167,-48.609976896734885,3.2033898305084745,0.6014196450859179,0.8688524590163934,MÉDIO
VILA PROPÍCIO,2026-06-21,0.0,4,6,6,1,0.0090901304412674,-15.174992710889834,-48.74270162202432,3.1449275362318843,0.6014017870097571,0.8647540983606558,MÉDIO
CAMPINAÇU,2026-06-21,0.0,3,6,6,1,0.0107566420492554,-13.868181231222769,-48.55699372818981,7.882352941176471,0.5902457855607935,0.860655737704918,MÉDIO
PIRENÓPOLIS,2026-06-21,0.0,4,6,6,1,0.0060856839490639,-15.78834605245366,-48.98248540918748,2.509433962264151,0.5805151950197356,0.8565573770491803,MÉDIO
CATALÃO,2026-06-21,0.2,0,6,6,1,0.0067051802889407,-17.859620758114687,-47.65795514226879,6.779220779220779,0.5803242691225221,0.8524590163934426,MÉDIO
COLINAS DO SUL,2026-06-21,0.0,4,6,6,1,0.0162671321380524,-13.94148455899416,-48.086108285372966,5.053571428571429,0.5643327782831469,0.8483606557377049,MÉDIO
ANÁPOLIS,2026-06-21,0.0,5,6,6,1,0.0025665903187268,-16.327248789404404,-48.95399874795129,2.279279279279279,0.5640669261101086,0.8442622950819673,MÉDIO
POSSE,2026-06-21,0.0,5,6,6,1,0.0078828878719008,-14.196997106543726,-46.3411011854588,3.027027027027027,0.5617818358018923,0.8401639344262295,MÉDIO
ARAGUAPAZ,2026-06-21,0.0,4,6,6,1,0.0072685601546451,-15.139882625109504,-50.2765366521584,3.544117647058824,0.5605296359024209,0.8360655737704918,MÉDIO
ALVORADA DO NORTE,2026-06-21,0.0,4,6,6,1,0.0069111868191262,-14.578913930149612,-46.62741788371978,4.3125,0.5538169720740262,0.8319672131147541,MÉDIO
MORRINHOS,2026-06-21,0.0,5,6,6,1,0.0046879407173752,-17.747080471125827,-49.18201398317284,2.7681159420289854,0.5525192764405428,0.8278688524590164,MÉDIO
PIRACANJUBA,2026-06-21,0.0,5,6,6,1,0.0031550749228767,-17.359788624438703,-49.008963459189445,2.4878048780487805,0.550074335192362,0.8237704918032787,MÉDIO
CEZARINA,2026-06-21,0.0,7,6,6,1,0.0010817188771388,-17.034689299189036,-49.7756844762151,1.1111111111111112,0.5474698327006581,0.819672131147541,MÉDIO
DOVERLÂNDIA,2026-06-21,0.3,0,6,6,1,0.0061203875580916,-16.786897298262215,-52.47629182084975,6.219512195121951,0.5399917736123668,0.8155737704918032,MÉDIO
GOIÂNIA,2026-06-21,0.1,0,6,6,1,0.0056264149104425,-16.627186847284758,-49.26892340187793,3.121387283236994,0.5381469814156472,0.8114754098360656,MÉDIO
MONTIVIDIU DO NORTE,2026-06-21,0.0,4,6,6,1,0.0055422401991839,-13.157797966650936,-48.70583895092373,7.462962962962963,0.5350882655837678,0.8073770491803278,MÉDIO
SÍTIO D'ABADIA,2026-06-21,0.0,4,6,6,1,0.0063869408104104,-14.729138480039394,-46.29929381822457,5.327586206896552,0.5335982171979989,0.8032786885245902,MÉDIO
SENADOR CANEDO,2026-06-21,0.0,7,6,6,1,0.0015070226813928,-16.72174558705297,-49.12425814633367,2.8767123287671232,0.5141074593391939,0.7991803278688525,MÉDIO
COCALZINHO DE GOIÁS,2026-06-21,0.0,4,6,6,1,0.0042582066651603,-15.644454575968023,-48.59695917813067,2.492063492063492,0.5140572742235795,0.7950819672131147,MÉDIO
JARAGUÁ,2026-06-21,0.0,4,6,6,1,0.0027460153611464,-15.684175632573451,-49.36723779617128,2.119047619047619,0.509535516259035,0.7909836065573771,MÉDIO
GOIANÉSIA,2026-06-21,0.0,4,6,6,1,0.0033721570729647,-15.235935983775684,-49.19339896780853,2.430379746835443,0.5059712354995565,0.7868852459016393,MÉDIO
CABECEIRAS,2026-06-21,0.0,4,6,6,1,0.0021161817760273,-15.753711869204832,-46.99550025639795,4.791666666666667,0.5047748886594021,0.7827868852459017,MÉDIO
IACIARA,2026-06-21,0.0,4,6,6,1,0.0029911557483205,-14.108153980696324,-46.79592329445353,7.594202898550725,0.5014502953827094,0.7786885245901639,MÉDIO
MARA ROSA,2026-06-21,0.0,4,6,6,1,0.0037022105460575,-13.999770100704,-49.390664925569126,2.625,0.49746428377273194,0.7745901639344263,MÉDIO
SANTA HELENA DE GOIÁS,2026-06-21,0.0,1,6,6,1,0.0065552902329276,-17.809635495091406,-50.550434417318826,5.549295774647887,0.49204742381354605,0.7704918032786885,MÉDIO
SANTO ANTÔNIO DO DESCOBERTO,2026-06-21,0.0,4,6,6,1,0.002381996653686,-16.02598615253068,-48.28800335138823,2.3076923076923075,0.4917123793350167,0.7663934426229508,MÉDIO
ABADIÂNIA,2026-06-21,0.0,5,6,6,1,0.0021287341452501,-16.19915712906121,-48.70814271576387,2.414634146341464,0.48725189713428885,0.7622950819672131,MÉDIO
ÁGUAS LINDAS DE GOIÁS,2026-06-21,0.0,5,6,6,1,0.0010477536427713,-15.740323677414423,-48.27077651213715,1.6349206349206349,0.486812786357823,0.7581967213114754,MÉDIO
ARUANÃ,2026-06-21,0.2,0,6,6,1,0.0055090133394766,-14.80056233565119,-50.9660645783424,5.5,0.4852468799982501,0.7540983606557377,MÉDIO
SANTA RITA DO NOVO DESTINO,2026-06-21,0.0,4,6,6,1,0.0025961253051333,-14.819117187607606,-49.03969360530454,4.5588235294117645,0.47181848448434643,0.75,MÉDIO
SANTA ISABEL,2026-06-21,0.0,4,6,6,1,0.0024432817504795,-15.200546008094864,-49.40043024932847,6.6415094339622645,0.4714624017330531,0.7459016393442623,MÉDIO
BOM JARDIM DE GOIÁS,2026-06-21,0.2,0,6,6,1,0.006982809161162,-16.169600227866493,-52.08811808319062,3.295238095238095,0.46641278884081944,0.7418032786885246,MÉDIO
MONTES CLAROS DE GOIÁS,2026-06-21,0.2,0,6,6,1,0.0036261579560608,-15.873326931416043,-51.59664771775818,4.019230769230769,0.4653075977818129,0.7377049180327869,MÉDIO
SÃO LUIZ DO NORTE,2026-06-21,0.0,5,6,6,1,0.0024484503731007,-14.905980936295272,-49.283790673643686,3.3375,0.46504319906655617,0.7336065573770492,MÉDIO
GOIÁS,2026-06-21,0.1,0,6,6,1,0.006679337175835,-15.910637681321438,-50.22587344128038,3.4526315789473685,0.46316624313125637,0.7295081967213115,MÉDIO
PIRES DO RIO,2026-06-21,0.0,6,6,6,1,0.0018075411680791,-17.230327492515848,-48.40629032850881,3.636363636363636,0.46011804733470335,0.7254098360655737,MÉDIO
GOIATUBA,2026-06-21,0.0,1,6,6,1,0.0047403653182468,-17.991078799174332,-49.72506729400575,2.75,0.4563892643394697,0.7213114754098361,MÉDIO
ITARUMÃ,2026-06-21,0.0,1,6,6,1,0.0046421614884451,-18.86462245523424,-51.33580667861621,4.627118644067797,0.4559470775508633,0.7172131147540983,MÉDIO
ITAPACI,2026-06-21,0.0,4,6,6,1,0.0027290327439626,-14.955491253186096,-49.62493326485581,2.6666666666666665,0.45485330437503757,0.7131147540983607,MÉDIO
CAMPINORTE,2026-06-21,0.0,5,6,6,1,0.0043180150126335,-14.019192669554034,-48.931304030265736,2.239130434782609,0.450176773677716,0.7090163934426229,MÉDIO
CAMPO ALEGRE DE GOIÁS,2026-06-21,0.2,0,6,6,1,0.0035722566058688,-17.478774899824252,-47.74286914863833,3.197674418604651,0.44947683881917594,0.7049180327868853,MÉDIO
BONÓPOLIS,2026-06-21,0.0,3,6,6,1,0.0027253408706618,-13.56457655433514,-49.78488929257367,3.725,0.44574245817239966,0.7008196721311475,MÉDIO
NOVA GLÓRIA,2026-06-21,0.0,5,6,6,1,0.0023332639261152,-15.080904022970325,-49.5127373729181,2.68,0.4443776108438594,0.6967213114754098,BAIXO
MUTUNÓPOLIS,2026-06-21,0.0,3,6,6,1,0.0021346411425314,-13.711606278817616,-49.31418113591433,5.033898305084746,0.43404275079405896,0.6926229508196722,BAIXO
MUNDO NOVO,2026-06-21,0.0,5,6,6,1,0.0027504456091074,-13.777534650060309,-50.25180240334917,2.9692307692307693,0.43087205922955996,0.6885245901639344,BAIXO
AMARALINA,2026-06-21,0.0,5,6,6,1,0.0035235238782981,-13.848529827205882,-49.56903226128027,2.5098039215686274,0.4303041851874925,0.6844262295081968,BAIXO
EDÉIA,2026-06-21,0.0,1,6,6,1,0.0040093744046854,-17.509361464280108,-50.00172531667008,2.9791666666666665,0.42964609849803886,0.680327868852459,BAIXO
PIRANHAS,2026-06-21,0.4,0,6,6,1,0.0030155221121059,-16.447787530113146,-51.854078169184085,3.371794871794872,0.42958466004078016,0.6762295081967213,BAIXO
BOM JESUS DE GOIÁS,2026-06-21,0.0,1,6,6,1,0.0043556721203019,-18.192311694542585,-49.92073113922121,2.872727272727273,0.42300285203075916,0.6721311475409836,BAIXO
CORUMBÁ DE GOIÁS,2026-06-21,0.0,4,6,6,1,0.0013837141131455,-15.898613517797502,-48.71659334472278,2.606060606060606,0.41614571531264416,0.6680327868852459,BAIXO
ACREÚNA,2026-06-21,0.0,1,6,6,1,0.0050453140528942,-17.48826970830257,-50.32369400069289,3.42,0.41554041649982465,0.6639344262295082,BAIXO
BELA VISTA DE GOIÁS,2026-06-21,0.0,7,6,6,1,0.002201094861946,-16.95106540676648,-48.933601465935,1.6,0.41453798891546667,0.6598360655737705,BAIXO
TERESINA DE GOIÁS,2026-06-21,0.0,4,6,6,1,0.0045387890360223,-13.661127323864664,-47.23879651180497,3.9615384615384617,0.4109470698303988,0.6557377049180327,BAIXO
ANICUNS,2026-06-21,0.1,0,6,6,1,0.0028693239293936,-16.386618352812665,-49.96569453715062,2.6095238095238096,0.4062856806610911,0.6516393442622951,BAIXO
QUIRINÓPOLIS,2026-06-21,0.0,1,6,6,1,0.0039104322002235,-18.344498864270253,-50.57761418506451,3.3095238095238093,0.4059682479204886,0.6475409836065574,BAIXO
PORTEIRÃO,2026-06-21,0.0,1,6,6,1,0.002961620761914,-17.91222565304729,-50.164965023771295,3.433333333333333,0.40314797821175213,0.6434426229508197,BAIXO
SANTA TEREZINHA DE GOIÁS,2026-06-21,0.0,4,6,6,1,0.0023960257722291,-14.32429478078316,-49.65930833489798,4.050847457627119,0.40198559455694033,0.639344262295082,BAIXO
CORUMBAÍBA,2026-06-21,0.0,5,6,6,1,0.0016332847482806,-18.048104715395148,-48.4749049622824,2.3191489361702127,0.4018800937079792,0.6352459016393442,BAIXO
NOVO GAMA,2026-06-21,0.0,5,6,6,1,0.0008040900049175,-16.10973108267564,-48.07263803458282,1.9787234042553192,0.4001865386580151,0.6311475409836066,BAIXO
GUARANI DE GOIÁS,2026-06-21,0.0,5,6,6,1,0.0039702405476967,-13.896234842419478,-46.35992556272503,3.25,0.4000859806596427,0.6270491803278688,BAIXO
BALIZA,2026-06-21,0.7,0,6,6,1,0.0094534107740676,-16.335498056525363,-52.47044379945877,2.369565217391304,0.39827256170120573,0.6229508196721312,BAIXO
ITABERAÍ,2026-06-21,0.2,0,6,6,1,0.0036438789479047,-16.076051965486666,-49.86875528845477,3.0,0.39778260569556617,0.6188524590163934,BAIXO
CIDADE OCIDENTAL,2026-06-21,0.0,5,6,6,1,0.0009805615486965,-16.103552382328953,-47.86022791897977,1.9230769230769231,0.3943216932191226,0.6147540983606558,BAIXO
SANTA CRUZ DE GOIÁS,2026-06-21,0.0,6,6,6,1,0.0013851908624659,-17.372324572144244,-48.58985156059331,2.351351351351352,0.3901085925323887,0.610655737704918,BAIXO
APORÉ,2026-06-21,0.0,1,6,6,1,0.0023280953034941,-18.7073526543005,-52.08304620766298,4.466666666666667,0.3847455674464924,0.6065573770491803,BAIXO
MAMBAÍ,2026-06-21,0.0,4,6,6,1,0.005212186726091,-14.387997990140692,-46.051088000383096,5.1923076923076925,0.38142569258601694,0.6024590163934426,BAIXO
VALPARAÍSO DE GOIÁS,2026-06-21,0.0,5,6,6,1,0.0004061060630896,-16.08965315501241,-47.98624179015667,2.023809523809524,0.3774449538032528,0.5983606557377049,BAIXO
NOVO PLANALTO,2026-06-21,0.0,3,6,6,1,0.0015786450234286,-13.224864863175409,-49.711211164352655,4.092307692307692,0.37735644179846306,0.5942622950819673,BAIXO
CAMPOS BELOS,2026-06-21,0.0,4,6,6,1,0.0053953036418114,-12.986995843211018,-46.42094914457776,2.765957446808511,0.3773079162074974,0.5901639344262295,BAIXO
SILVÂNIA,2026-06-21,0.4,0,6,6,1,0.0024809388581478,-16.63901076782678,-48.5989267608625,2.824074074074074,0.3771773856541228,0.5860655737704918,BAIXO
TURVELÂNDIA,2026-06-21,0.0,1,6,6,1,0.0033884013154882,-17.8061094010701,-50.31150433875028,2.41025641025641,0.3765297663376183,0.5819672131147541,BAIXO
URUTAÍ,2026-06-21,0.0,6,6,6,1,0.001073596755877,-17.44233047699522,-48.19865040570893,2.357142857142857,0.37046436809251043,0.5778688524590164,BAIXO
GUAPÓ,2026-06-21,0.0,7,6,6,1,0.0013896211104268,-16.923914459668058,-49.58948320140861,2.5,0.37027634183112845,0.5737704918032787,BAIXO
SANTA TEREZA DE GOIÁS,2026-06-21,0.0,3,6,6,1,0.0022261996003916,-13.615351655700474,-48.99769110324295,3.5405405405405403,0.3678861189348016,0.569672131147541,BAIXO
NOVA IGUAÇU DE GOIÁS,2026-06-21,0.0,4,6,6,1,0.0017403490740043,-14.335840325249317,-49.31212409374217,2.3043478260869565,0.3520696446691465,0.5655737704918032,BAIXO
TROMBAS,2026-06-21,0.0,4,6,6,1,0.0034592852828639,-13.45565441683509,-48.69444724203579,1.818181818181818,0.3517189727079744,0.5614754098360656,BAIXO
FORMOSO,2026-06-21,0.0,4,6,6,1,0.0027740735982326,-13.7157591183698,-48.828383563721786,1.8333333333333333,0.3504578735014351,0.5573770491803278,BAIXO
PALMEIRAS DE GOIÁS,2026-06-21,0.3,0,6,6,1,0.0026522417793057,-16.814514481269185,-49.9450199537401,2.2916666666666665,0.35000710801753904,0.5532786885245902,BAIXO
FAINA,2026-06-21,0.1,0,6,6,1,0.0040012522834236,-15.450502453569465,-50.35323063719383,2.484848484848485,0.3479140413813442,0.5491803278688525,BAIXO
ORIZONA,2026-06-21,0.1,0,6,6,1,0.0020201930702061,-17.02708940860277,-48.16569268300261,2.0625,0.346699136584052,0.5450819672131147,BAIXO
MOZARLÂNDIA,2026-06-21,0.0,4,6,6,1,0.0020120709489443,-14.81638418252236,-50.609316979892746,2.8541666666666665,0.3413760167491629,0.5409836065573771,BAIXO
RUBIATABA,2026-06-21,0.0,4,6,6,1,0.0012448996770349,-15.197347826385103,-49.85541149603293,2.3846153846153846,0.3369609537597491,0.5368852459016393,BAIXO
HIDROLÂNDIA,2026-06-21,0.1,0,6,6,1,0.001757331691188,-17.00595303936355,-49.2631795818899,2.1594202898550723,0.3359951705219166,0.5327868852459017,BAIXO
SANTA FÉ DE GOIÁS,2026-06-21,0.1,0,6,6,1,0.0017765294323523,-15.695835336846852,-51.16880663261477,4.266666666666667,0.3326493576755626,0.5286885245901639,BAIXO
DIVINÓPOLIS DE GOIÁS,2026-06-21,0.0,3,6,6,1,0.001997303455741,-13.286303429360114,-46.52383420100133,3.909090909090909,0.3295464686229226,0.5245901639344263,BAIXO
ITAJÁ,2026-06-21,0.0,1,6,6,1,0.0019995185797215,-19.086946202574843,-51.34562507108249,2.5384615384615383,0.3257801131252485,0.5204918032786885,BAIXO
RIALMA,2026-06-21,0.0,4,6,6,1,0.0012478531756755,-15.319958184167618,-49.53010326892392,1.5483870967741935,0.32082423571088026,0.5163934426229508,BAIXO
FAZENDA NOVA,2026-06-21,0.3,0,6,6,1,0.0038077981224609,-16.080235263157753,-50.93137671149489,2.647058823529412,0.31690164330175635,0.5122950819672131,BAIXO
MAURILÂNDIA,2026-06-21,0.0,1,6,6,1,0.0023303104274746,-18.03750092993941,-50.36063856125698,4.36,0.31683329898600276,0.5081967213114754,BAIXO
UIRAPURU,2026-06-21,0.0,5,6,6,1,0.0023568919152404,-14.1658704952681,-49.9660646641288,1.8823529411764703,0.316187873925191,0.5040983606557377,BAIXO
VICENTINÓPOLIS,2026-06-21,0.0,1,6,6,1,0.0018865472567166,-17.717102371829977,-49.92046965643163,4.85,0.31185499625489943,0.5,BAIXO
CAÇU,2026-06-21,0.0,1,6,6,1,0.0017366572007035,-18.69115169498673,-51.169522816602274,4.6,0.30844124461911937,0.4959016393442623,BAIXO
SÃO FRANCISCO DE GOIÁS,2026-06-21,0.0,4,6,6,1,0.000774555018511,-15.930856959393246,-49.25922517675899,2.2580645161290325,0.30732366471756156,0.4918032786885246,BAIXO
ITAPURANGA,2026-06-21,0.2,0,6,6,1,0.0018466750250678,-15.577224810549591,-49.933817512866845,2.2222222222222223,0.30592028228266355,0.48770491803278687,BAIXO
SIMOLÂNDIA,2026-06-21,0.0,4,6,6,1,0.0011799227069405,-14.434586326028946,-46.58882654789143,2.5789473684210527,0.29939780361758594,0.48360655737704916,BAIXO
PEROLÂNDIA,2026-06-21,0.0,1,6,6,1,0.0024462352491202,-17.53130275403183,-52.205615580294655,2.4074074074074074,0.29877460074893447,0.47950819672131145,BAIXO
APARECIDA DE GOIÂNIA,2026-06-21,0.1,0,6,6,1,0.0013357197602349,-16.80602601231046,-49.24588428522596,1.7731958762886595,0.29852634022002783,0.47540983606557374,BAIXO
CHAPADÃO DO CÉU,2026-06-21,0.1,0,6,6,1,0.0062939056032299,-18.41837474627293,-52.650980123044505,15.272727272727272,0.29837779233689854,0.4713114754098361,BAIXO
INDIARA,2026-06-21,0.2,0,6,6,1,0.0023591070392209,-17.22357364537349,-49.96111627583188,2.575,0.2976078667740595,0.4672131147540984,BAIXO
HIDROLINA,2026-06-21,0.0,4,6,6,1,0.0009628405568526,-14.78351237067298,-49.29993852784245,2.740740740740741,0.297155445126904,0.46311475409836067,BAIXO
TRINDADE,2026-06-21,0.1,0,6,6,1,0.0016598662360465,-16.650075769653657,-49.51836291274552,1.6708860759493671,0.2865046845285963,0.45901639344262296,BAIXO
GAMELEIRA DE GOIÁS,2026-06-21,0.0,5,6,6,1,0.0005648566150247,-16.393084698423134,-48.71174726623623,2.0303030303030303,0.2864772067394043,0.45491803278688525,BAIXO
PILAR DE GOIÁS,2026-06-21,0.0,4,6,6,1,0.0022653334573802,-14.563053642806697,-49.51029317946296,1.4210526315789471,0.28560351397204375,0.45081967213114754,BAIXO
CAMPOS VERDES,2026-06-21,0.0,4,6,6,1,0.0009022938347192,-14.200869051269477,-49.67078102066461,3.28,0.28203246376928415,0.44672131147540983,BAIXO
MATRINCHÃ,2026-06-21,0.2,0,6,6,1,0.0013534407520788,-15.332925918372275,-50.75330754036656,3.5454545454545454,0.28187709185911325,0.4426229508196721,BAIXO
GUARINOS,2026-06-21,0.0,4,6,6,1,0.0012316089331519,-14.677563689499642,-49.737239130745,2.75,0.2767828614463131,0.4385245901639344,BAIXO
ITAPIRAPUÃ,2026-06-21,0.1,0,6,6,1,0.0013726384932431,-15.75718984044679,-50.7465760866374,2.4242424242424243,0.2760197276442056,0.4344262295081967,BAIXO
SANTA RITA DO ARAGUAIA,2026-06-21,0.1,0,6,6,1,0.0016871860984725,-17.30441364463477,-53.10068255768836,2.236842105263158,0.2697965844949778,0.430327868852459,BAIXO
MONTIVIDIU,2026-06-21,0.0,1,6,6,1,0.0017492095699262,-17.302834146829042,-51.19610715003383,1.625,0.2692816742115635,0.4262295081967213,BAIXO
ARENÓPOLIS,2026-06-21,0.5,0,6,6,1,0.0016960465943945,-16.361902054815086,-51.55715988814804,2.2413793103448274,0.26799256088838996,0.42213114754098363,BAIXO
ALTO HORIZONTE,2026-06-21,0.0,4,6,6,1,0.0009111543306412,-14.162393972965113,-49.45279801107309,2.4705882352941178,0.2644092528791649,0.4180327868852459,BAIXO
ESTRELA DO NORTE,2026-06-21,0.0,3,6,6,1,0.0006290952104589,-13.815008598965576,-49.04348551590312,3.269230769230769,0.263058316945907,0.4139344262295082,BAIXO
BRITÂNIA,2026-06-21,0.5,0,6,6,1,0.0024949679766909,-15.098256086081884,-51.20240394542521,1.631578947368421,0.26297063916671926,0.4098360655737705,BAIXO
PROFESSOR JAMIL,2026-06-21,0.0,7,6,6,1,0.0010381547721892,-17.327766046172016,-49.24779400353557,2.333333333333333,0.2592489296091972,0.4057377049180328,BAIXO
PALESTINA DE GOIÁS,2026-06-21,1.1,0,6,6,1,0.0016318079989603,-16.713753711842983,-51.42754199497641,2.933333333333333,0.2577145512172895,0.4016393442622951,BAIXO
CACHOEIRA ALTA,2026-06-21,0.0,1,6,6,1,0.0012825567847032,-18.461936889018936,-50.98679602687277,3.4827586206896552,0.2553084542742807,0.3975409836065574,BAIXO
JAUPACI,2026-06-21,0.3,0,6,6,1,0.0010263407776266,-16.20973022325548,-51.05550430467066,4.142857142857143,0.2542987903946984,0.39344262295081966,BAIXO
DIORAMA,2026-06-21,0.6,0,6,6,1,0.0011001782436429,-16.22661972062711,-51.389931230721885,4.384615384615385,0.250422544012281,0.38934426229508196,BAIXO
INHUMAS,2026-06-21,0.3,0,6,6,1,0.0011282364807291,-16.318242778189063,-49.50186836687853,1.9130434782608696,0.2502564190037806,0.38524590163934425,BAIXO
IVOLÂNDIA,2026-06-21,1.2,0,6,6,1,0.0014804411936269,-16.679987246814406,-50.98325370232422,3.4878048780487805,0.24916981089469425,0.38114754098360654,BAIXO
MOSSÂMEDES,2026-06-21,0.2,0,6,6,1,0.002096984034863,-16.138102134284225,-50.1950255261411,1.875,0.24914993036437225,0.3770491803278688,BAIXO
JANDAIA,2026-06-21,0.3,0,6,6,1,0.0011570330924755,-17.140823818775164,-50.18439081477384,3.55,0.24542214289631312,0.3729508196721312,BAIXO
GOIANÁPOLIS,2026-06-21,0.1,0,6,6,1,0.0013534407520788,-16.52798048733482,-49.09369703759325,1.7692307692307692,0.24371342311155852,0.36885245901639346,BAIXO
OUVIDOR,2026-06-21,0.0,5,6,6,1,0.0006859500592914,-18.22269684670895,-47.73785347238525,1.36,0.24226796917177704,0.36475409836065575,BAIXO
ARAGARÇAS,2026-06-21,0.1,0,6,6,1,0.0016207323790579,-15.9954744133776,-52.195114826594455,1.809523809523809,0.2418068203552879,0.36065573770491804,BAIXO
SANTO ANTÔNIO DA BARRA,2026-06-21,0.1,0,6,6,1,0.0012611439195585,-17.55961474151254,-50.63551540775774,3.2962962962962963,0.241781100890548,0.35655737704918034,BAIXO
PANAMÁ,2026-06-21,0.0,1,6,6,1,0.0011511260951942,-18.199317807602675,-49.40058551258638,2.875,0.23697123316975613,0.3524590163934426,BAIXO
CASTELÂNDIA,2026-06-21,0.0,1,6,6,1,0.0014516445818805,-18.147960130853747,-50.30679359237395,2.7222222222222223,0.23577459344682222,0.3483606557377049,BAIXO
ABADIA DE GOIÁS,2026-06-21,0.0,5,6,6,1,0.0004105363110506,-16.78893560640398,-49.43279950787229,1.7179487179487178,0.2357594882875445,0.3442622950819672,BAIXO
PORTELÂNDIA,2026-06-21,0.1,0,6,6,1,0.001209457693347,-17.363742774222114,-52.70044038012558,2.230769230769231,0.23421467933188922,0.3401639344262295,BAIXO
IPORÁ,2026-06-21,0.5,0,6,6,1,0.0012958475285861,-16.39958999360689,-51.174760035598624,1.6444444444444444,0.23287966778855096,0.3360655737704918,BAIXO
ALEXÂNIA,2026-06-21,0.8,0,6,6,1,0.0011895215775226,-16.07491682926853,-48.49287370127031,1.9056603773584904,0.2307454249312096,0.3319672131147541,BAIXO
PETROLINA DE GOIÁS,2026-06-21,0.1,0,6,6,1,0.0007716015198704,-16.11674724559263,-49.318512368591655,3.56,0.22813931272359594,0.32786885245901637,BAIXO
GOIANDIRA,2026-06-21,0.0,7,6,6,1,0.0006940721805532,-18.109377022796597,-48.1276924891904,1.5555555555555556,0.2267326215420378,0.3237704918032787,BAIXO
